{
    "Marathon": {
        "Name": "Marathon",
        "Hours": "Mon-Sun: 5:00am - 11:00pm",
        "Address": "901 Crossland Ave, Winchester, TN, 37398",
        "Street": "901 Crossland Ave",
        "City": "Winchester",
        "State": "TN",
        "Zip Code": "37398",
        "Latitude": "35.1356859",
        "Longitude": "-86.0729404"
    },
    "J Mart Gas": {
        "Name": "J Mart Gas",
        "Hours": "Mon-Sun: 5:00am - 10:00pm",
        "Address": "210 W Elm St, Tuscaloosa, AL, 35401",
        "Street": "210 W Elm St",
        "City": "Tuscaloosa",
        "State": "AL",
        "Zip Code": "35401",
        "Latitude": "33.1866468",
        "Longitude": "-87.57034890000001"
    },
    "Shell Gas Station": {
        "Name": "Shell Gas Station",
        "Hours": "Mon-Sat: 8:00am - 10:30pm, Sun: 10:00am - 4:30pm",
        "Address": "7039 Hull Street Road, Williamsburg, VA, 23188",
        "Street": "7039 Hull Street Road",
        "City": "Williamsburg",
        "State": "VA",
        "Zip Code": "23188",
        "Latitude": "37.4727772",
        "Longitude": "-77.5246093"
    },
    "Woodland Petro Gas Station": {
        "Name": "Woodland Petro Gas Station",
        "Hours": "Mon-Sun: 5:00am - 10:00pm",
        "Address": "6400 1st Ave N, Tuscaloosa, AL, 35401",
        "Street": "6400 1st Ave N",
        "City": "Tuscaloosa",
        "State": "AL",
        "Zip Code": "35401",
        "Latitude": "33.2368538",
        "Longitude": "-87.5354677"
    },
    "Marathon Gas Station": {
        "Name": "Marathon Gas Station",
        "Hours": "Mon-Tue: 10:00am - 10:00pm, Wed-Thu: 10:00am - 11:00pm, Fri-Sat: 10AM-12AM, Sun: 11:00am - 10:00pm",
        "Address": "1701 S Philo Road, Winfield, IL, 60190",
        "Street": "1701 S Philo Road",
        "City": "Winfield",
        "State": "IL",
        "Zip Code": "60190",
        "Latitude": "40.0980419",
        "Longitude": "-88.1910802"
    },
    "Citgo": {
        "Name": "Citgo",
        "Hours": "Mon-Fri: 7:00am - 10:00pm, Sat-Sun: 8:00am - 10:00pm",
        "Address": "7050 S Loop E, Wolfforth, TX, 79382",
        "Street": "7050 S Loop E",
        "City": "Wolfforth",
        "State": "TX",
        "Zip Code": "79382",
        "Latitude": "33.51110450000001",
        "Longitude": "-102.0069732"
    },
    "ID # 1034 Conoco 5982 AL-157": {
        "Name": "ID # 1034 Conoco 5982 AL-157",
        "Hours": "Mon-Sun: 5:00am - 10:00pm",
        "Address": "Cullman Tuscaloosa, AL, 35401",
        "Street": "Cullman",
        "City": "Tuscaloosa",
        "State": "AL",
        "Zip Code": "35401",
        "Latitude": "33.2143028",
        "Longitude": "-87.54524049999999"
    },
    "Jet Pep": {
        "Name": "Jet Pep",
        "Hours": "Mon-Sun: 5:00am - 10:00pm",
        "Address": "2310 Pelham Pkwy, Tuscaloosa, AL, 35401",
        "Street": "2310 Pelham Pkwy",
        "City": "Tuscaloosa",
        "State": "AL",
        "Zip Code": "35401",
        "Latitude": "33.3280343",
        "Longitude": "-86.7934315"
    },
    "Shell": {
        "Name": "Shell",
        "Hours": "Mon-Sat: 8:00am - 10:30pm, Sun: 10:00am - 4:30pm",
        "Address": "1777 Virginia Beach Blvd, Williamsburg, VA, 23188",
        "Street": "1777 Virginia Beach Blvd",
        "City": "Williamsburg",
        "State": "VA",
        "Zip Code": "23188",
        "Latitude": "36.8429224",
        "Longitude": "-76.0263619"
    },
    "Chevron": {
        "Name": "Chevron",
        "Hours": "Mon-Fri: 7:00am - 10:00pm, Sat-Sun: 8:00am - 10:00pm",
        "Address": "6530 W 43rd St, Wolfforth, TX, 79382",
        "Street": "6530 W 43rd St",
        "City": "Wolfforth",
        "State": "TX",
        "Zip Code": "79382",
        "Latitude": "29.8332645",
        "Longitude": "-95.48857509999999"
    },
    "Victory Fuel": {
        "Name": "Victory Fuel",
        "Hours": "Mon-Sun: 5:00am - 11:00pm",
        "Address": "3410 Brainerd Rd, Winchester, TN, 37398",
        "Street": "3410 Brainerd Rd",
        "City": "Winchester",
        "State": "TN",
        "Zip Code": "37398",
        "Latitude": "35.0263245",
        "Longitude": "-85.25261069999999"
    },
    "Fuel King": {
        "Name": "Fuel King",
        "Hours": "Mon-Sun: 5:00am - 10:00pm",
        "Address": "619 Oakwood Ave NW, Tuscaloosa, AL, 35401",
        "Street": "619 Oakwood Ave NW",
        "City": "Tuscaloosa",
        "State": "AL",
        "Zip Code": "35401",
        "Latitude": "33.204396",
        "Longitude": "-87.557086"
    },
    "Texaco": {
        "Name": "Texaco",
        "Hours": "Mon-Fri: 7:00am - 10:00pm, Sat-Sun: 8:00am - 10:00pm",
        "Address": "820 S Belt Line Rd, Wolfforth, TX, 79382",
        "Street": "820 S Belt Line Rd",
        "City": "Wolfforth",
        "State": "TX",
        "Zip Code": "79382",
        "Latitude": "32.8054654",
        "Longitude": "-96.9940986"
    },
    "Drake Mini Mart Inc": {
        "Name": "Drake Mini Mart Inc",
        "Hours": "Mon-Sun: 5:00am - 10:00pm",
        "Address": "3629 Patton Road, Tuscaloosa, AL, 35401",
        "Street": "3629 Patton Road",
        "City": "Tuscaloosa",
        "State": "AL",
        "Zip Code": "35401",
        "Latitude": "33.3699706",
        "Longitude": "-87.5767118"
    },
    "Parkway Place": {
        "Name": "Parkway Place",
        "Hours": "Mon-Sun: 5:00am - 10:00pm",
        "Address": "2801 Memorial Pkwy South, Tuscaloosa, AL, 35401",
        "Street": "2801 Memorial Pkwy South",
        "City": "Tuscaloosa",
        "State": "AL",
        "Zip Code": "35401",
        "Latitude": "34.7072982",
        "Longitude": "-86.5872266"
    },
    "Sunoco": {
        "Name": "Sunoco",
        "Hours": "Mon-Sat: 8:00am - 10:30pm, Sun: 10:00am - 4:30pm",
        "Address": "5604 Chamberlayne Rd, Williamsburg, VA, 23188",
        "Street": "5604 Chamberlayne Rd",
        "City": "Williamsburg",
        "State": "VA",
        "Zip Code": "23188",
        "Latitude": "37.6092105",
        "Longitude": "-77.4480787"
    },
    "Pine Grove Texaco": {
        "Name": "Pine Grove Texaco",
        "Hours": "Mon-Sun: 5:00am - 10:00pm",
        "Address": "7190 Wall Triana Hwy, Tuscaloosa, AL, 35401",
        "Street": "7190 Wall Triana Hwy",
        "City": "Tuscaloosa",
        "State": "AL",
        "Zip Code": "35401",
        "Latitude": "34.794325",
        "Longitude": "-86.74986899999999"
    },
    "Greenbrier Chevron": {
        "Name": "Greenbrier Chevron",
        "Hours": "Mon-Sun: 5:00am - 10:00pm",
        "Address": "6681 Swancott Rd, Tuscaloosa, AL, 35401",
        "Street": "6681 Swancott Rd",
        "City": "Tuscaloosa",
        "State": "AL",
        "Zip Code": "35401",
        "Latitude": "34.6357744",
        "Longitude": "-86.8445727"
    },
    "Circle K": {
        "Name": "Circle K",
        "Hours": "Mon-Fri: 7:00am - 10:00pm, Sat-Sun: 8:00am - 10:00pm",
        "Address": "11311 Huebner Rd., Wolfforth, TX, 79382",
        "Street": "11311 Huebner Rd.",
        "City": "Wolfforth",
        "State": "TX",
        "Zip Code": "79382",
        "Latitude": "29.5485535",
        "Longitude": "-98.5755999"
    },
    "Discount Zone Shell": {
        "Name": "Discount Zone Shell",
        "Hours": "Mon-Sun: 5:00am - 10:00pm",
        "Address": "158 N Broad St, Tuscaloosa, AL, 35401",
        "Street": "158 N Broad St",
        "City": "Tuscaloosa",
        "State": "AL",
        "Zip Code": "35401",
        "Latitude": "30.6905296",
        "Longitude": "-88.0553906"
    },
    "Trade Mart": {
        "Name": "Trade Mart",
        "Hours": "Mon-Sun: 5:00am - 10:00pm",
        "Address": "5201 Alabama 69, Tuscaloosa, AL, 35401",
        "Street": "5201 Alabama 69",
        "City": "Tuscaloosa",
        "State": "AL",
        "Zip Code": "35401",
        "Latitude": "33.257408",
        "Longitude": "-87.57067459999999"
    },
    "Texaco Gas Station": {
        "Name": "Texaco Gas Station",
        "Hours": "Mon-Fri: 7:00am - 10:00pm, Sat-Sun: 8:00am - 10:00pm",
        "Address": "6660 Telephone Rd, Wolfforth, TX, 79382",
        "Street": "6660 Telephone Rd",
        "City": "Wolfforth",
        "State": "TX",
        "Zip Code": "79382",
        "Latitude": "33.5176412",
        "Longitude": "-102.0109693"
    },
    "Kelly's Food Mart": {
        "Name": "Kelly's Food Mart",
        "Hours": "Mon-Sun: 5:00am - 10:00pm",
        "Address": "22507 US-231, Tuscaloosa, AL, 35401",
        "Street": "22507 US-231",
        "City": "Tuscaloosa",
        "State": "AL",
        "Zip Code": "35401",
        "Latitude": "33.201099",
        "Longitude": "-86.3074829"
    },
    "Chandler Smoke and Cigar": {
        "Name": "Chandler Smoke and Cigar",
        "Hours": "24/7",
        "Address": "1960 W Ray Rd Suite #106, Tucson, AZ, 85712",
        "Street": "1960 W Ray Rd Suite #106",
        "City": "Tucson",
        "State": "AZ",
        "Zip Code": "85712",
        "Latitude": "33.3218227",
        "Longitude": "-111.8749308"
    },
    "Discount Store": {
        "Name": "Discount Store",
        "Hours": "24/7",
        "Address": "12092 W Thunderbird Rd, Tucson, AZ, 85712",
        "Street": "12092 W Thunderbird Rd",
        "City": "Tucson",
        "State": "AZ",
        "Zip Code": "85712",
        "Latitude": "33.6091533",
        "Longitude": "-112.3204061"
    },
    "Chevron Gas Station": {
        "Name": "Chevron Gas Station",
        "Hours": "Mon-Fri: 7:00am - 10:00pm, Sat-Sun: 8:00am - 10:00pm",
        "Address": "4724 Southeast Loop 820, Wolfforth, TX, 79382",
        "Street": "4724 Southeast Loop 820",
        "City": "Wolfforth",
        "State": "TX",
        "Zip Code": "79382",
        "Latitude": "32.660794",
        "Longitude": "-97.25289629999999"
    },
    "Grand Stop 2": {
        "Name": "Grand Stop 2",
        "Hours": "24/7",
        "Address": "3702 W McDowell Rd, Tucson, AZ, 85712",
        "Street": "3702 W McDowell Rd",
        "City": "Tucson",
        "State": "AZ",
        "Zip Code": "85712",
        "Latitude": "33.4662306",
        "Longitude": "-112.1390621"
    },
    "76": {
        "Name": "76",
        "Hours": "24/7",
        "Address": "155 E Glenarm St, Wilmington, CA, 90744",
        "Street": "155 E Glenarm St",
        "City": "Wilmington",
        "State": "CA",
        "Zip Code": "90744",
        "Latitude": "34.1279379",
        "Longitude": "-118.1468743"
    },
    "Arizona Malls Shopping Mall": {
        "Name": "Arizona Malls Shopping Mall",
        "Hours": "24/7",
        "Address": "5000 Arizona Mills Circle, Tucson, AZ, 85712",
        "Street": "5000 Arizona Mills Circle",
        "City": "Tucson",
        "State": "AZ",
        "Zip Code": "85712",
        "Latitude": "33.3832233",
        "Longitude": "-111.9644216"
    },
    "Kwik Mart": {
        "Name": "Kwik Mart",
        "Hours": "Mon-Fri: 5:30am - 9:00pm, Sat: 7:00am - 9:00pm, Sun: 8:00am - 9:00pm",
        "Address": "4203 Hohman Ave, Zionsville, IN, 46077",
        "Street": "4203 Hohman Ave",
        "City": "Zionsville",
        "State": "IN",
        "Zip Code": "46077",
        "Latitude": "41.637303",
        "Longitude": "-87.5167476"
    },
    "Pride Food Mart": {
        "Name": "Pride Food Mart",
        "Hours": "24/7",
        "Address": "1734 E Apache Blvd., Tucson, AZ, 85712",
        "Street": "1734 E Apache Blvd.",
        "City": "Tucson",
        "State": "AZ",
        "Zip Code": "85712",
        "Latitude": "33.4152126",
        "Longitude": "-111.9096244"
    },
    "AM/PM": {
        "Name": "AM/PM",
        "Hours": "24/7",
        "Address": "2891 W Valencia Rd., Tucson, AZ, 85712",
        "Street": "2891 W Valencia Rd.",
        "City": "Tucson",
        "State": "AZ",
        "Zip Code": "85712",
        "Latitude": "32.133325",
        "Longitude": "-111.0283201"
    },
    "Chevron E Speedway": {
        "Name": "Chevron E Speedway",
        "Hours": "24/7",
        "Address": "8530 E Speedway Blvd, Tucson, AZ, 85712",
        "Street": "8530 E Speedway Blvd",
        "City": "Tucson",
        "State": "AZ",
        "Zip Code": "85712",
        "Latitude": "32.2349934",
        "Longitude": "-110.8102859"
    },
    "Circle  K": {
        "Name": "Circle  K",
        "Hours": "24/7",
        "Address": "5502 E Speedway Blvd, Tucson, AZ, 85712",
        "Street": "5502 E Speedway Blvd",
        "City": "Tucson",
        "State": "AZ",
        "Zip Code": "85712",
        "Latitude": "32.2357872",
        "Longitude": "-110.8750829"
    },
    "Sunshine Express Food Mart - Texaco": {
        "Name": "Sunshine Express Food Mart - Texaco",
        "Hours": "24/7",
        "Address": "1005 W South St, West Memphis, AR, 72301",
        "Street": "1005 W South St",
        "City": "West Memphis",
        "State": "AR",
        "Zip Code": "72301",
        "Latitude": "35.1377209",
        "Longitude": "-90.19633639999999"
    },
    "White Oak Station": {
        "Name": "White Oak Station",
        "Hours": "24/7",
        "Address": "1140 E Centerton Blvd, West Memphis, AR, 72301",
        "Street": "1140 E Centerton Blvd",
        "City": "West Memphis",
        "State": "AR",
        "Zip Code": "72301",
        "Latitude": "36.3583094",
        "Longitude": "-94.2655657"
    },
    "Valero": {
        "Name": "Valero",
        "Hours": "Mon-Sat: 8:00am - 10:30pm, Sun: 10:00am - 4:30pm",
        "Address": "917 S Monroe Ave, Williamsburg, VA, 23188",
        "Street": "917 S Monroe Ave",
        "City": "Williamsburg",
        "State": "VA",
        "Zip Code": "23188",
        "Latitude": "37.7839937",
        "Longitude": "-79.98628699999999"
    },
    "Wild Bill's": {
        "Name": "Wild Bill's",
        "Hours": "24/7",
        "Address": "1240 Garland Ave, West Memphis, AR, 72301",
        "Street": "1240 Garland Ave",
        "City": "West Memphis",
        "State": "AR",
        "Zip Code": "72301",
        "Latitude": "35.1581461",
        "Longitude": "-90.1549847"
    },
    "Fast Trax": {
        "Name": "Fast Trax",
        "Hours": "24/7",
        "Address": "1500 S School Ave, West Memphis, AR, 72301",
        "Street": "1500 S School Ave",
        "City": "West Memphis",
        "State": "AR",
        "Zip Code": "72301",
        "Latitude": "35.1377209",
        "Longitude": "-90.19633639999999"
    },
    "Garrison Liquor": {
        "Name": "Garrison Liquor",
        "Hours": "24/7",
        "Address": "415 Garrison Ave Suite B, West Memphis, AR, 72301",
        "Street": "415 Garrison Ave Suite B",
        "City": "West Memphis",
        "State": "AR",
        "Zip Code": "72301",
        "Latitude": "35.1318693",
        "Longitude": "-90.19312459999999"
    },
    "Pic-N-Tote": {
        "Name": "Pic-N-Tote",
        "Hours": "24/7",
        "Address": "6600 Phoenix Ave, West Memphis, AR, 72301",
        "Street": "6600 Phoenix Ave",
        "City": "West Memphis",
        "State": "AR",
        "Zip Code": "72301",
        "Latitude": "35.1516773",
        "Longitude": "-90.1781175"
    },
    "Pic N Tote": {
        "Name": "Pic N Tote",
        "Hours": "24/7",
        "Address": "2000 Phoenix Ave, West Memphis, AR, 72301",
        "Street": "2000 Phoenix Ave",
        "City": "West Memphis",
        "State": "AR",
        "Zip Code": "72301",
        "Latitude": "35.1454262",
        "Longitude": "-90.22286059999999"
    },
    "Speedy Wolf": {
        "Name": "Speedy Wolf",
        "Hours": "24/7",
        "Address": "1203 W Parker Road, West Memphis, AR, 72301",
        "Street": "1203 W Parker Road",
        "City": "West Memphis",
        "State": "AR",
        "Zip Code": "72301",
        "Latitude": "35.8072551",
        "Longitude": "-90.7225467"
    },
    "MS Express": {
        "Name": "MS Express",
        "Hours": "24/7",
        "Address": "3224 S Caraway Road, West Memphis, AR, 72301",
        "Street": "3224 S Caraway Road",
        "City": "West Memphis",
        "State": "AR",
        "Zip Code": "72301",
        "Latitude": "35.14984390000001",
        "Longitude": "-90.2134019"
    },
    "McCain Mall": {
        "Name": "McCain Mall",
        "Hours": "24/7",
        "Address": "3929 McCain Blvd, West Memphis, AR, 72301",
        "Street": "3929 McCain Blvd",
        "City": "West Memphis",
        "State": "AR",
        "Zip Code": "72301",
        "Latitude": "35.1552571",
        "Longitude": "-90.1841286"
    },
    "Fast Mart": {
        "Name": "Fast Mart",
        "Hours": "24/7",
        "Address": "1420 S Cherry St, West Memphis, AR, 72301",
        "Street": "1420 S Cherry St",
        "City": "West Memphis",
        "State": "AR",
        "Zip Code": "72301",
        "Latitude": "35.1602901",
        "Longitude": "-90.2034882"
    },
    "White Oak Station Pinnacle Market": {
        "Name": "White Oak Station Pinnacle Market",
        "Hours": "24/7",
        "Address": "2000 S Promenade Blvd #1, West Memphis, AR, 72301",
        "Street": "2000 S Promenade Blvd #1",
        "City": "West Memphis",
        "State": "AR",
        "Zip Code": "72301",
        "Latitude": "36.3130431",
        "Longitude": "-94.17986549999999"
    },
    "Speedway": {
        "Name": "Speedway",
        "Hours": "24/7",
        "Address": "601 E Emma Ave, West Memphis, AR, 72301",
        "Street": "601 E Emma Ave",
        "City": "West Memphis",
        "State": "AR",
        "Zip Code": "72301",
        "Latitude": "36.1845626",
        "Longitude": "-94.1245715"
    },
    "BP": {
        "Name": "BP",
        "Hours": "Mon-Sat: 8:00am - 10:30pm, Sun: 10:00am - 4:30pm",
        "Address": "2155 S Military Hwy, Williamsburg, VA, 23188",
        "Street": "2155 S Military Hwy",
        "City": "Williamsburg",
        "State": "VA",
        "Zip Code": "23188",
        "Latitude": "36.7789021",
        "Longitude": "-76.2671237"
    },
    "Bonfare Market": {
        "Name": "Bonfare Market",
        "Hours": "24/7",
        "Address": "650 Central Ave Suite H, Wilmington, CA, 90744",
        "Street": "650 Central Ave Suite H",
        "City": "Wilmington",
        "State": "CA",
        "Zip Code": "90744",
        "Latitude": "33.7857948",
        "Longitude": "-118.2643567"
    },
    "Abba Smoke City": {
        "Name": "Abba Smoke City",
        "Hours": "24/7",
        "Address": "903 N Euclid St, Wilmington, CA, 90744",
        "Street": "903 N Euclid St",
        "City": "Wilmington",
        "State": "CA",
        "Zip Code": "90744",
        "Latitude": "33.7528757",
        "Longitude": "-117.9370054"
    },
    "Antelope Liquors": {
        "Name": "Antelope Liquors",
        "Hours": "24/7",
        "Address": "8023 Watt Ave, Wilmington, CA, 90744",
        "Street": "8023 Watt Ave",
        "City": "Wilmington",
        "State": "CA",
        "Zip Code": "90744",
        "Latitude": "38.7147346",
        "Longitude": "-121.3942058"
    },
    "Dave's Liquor": {
        "Name": "Dave's Liquor",
        "Hours": "24/7",
        "Address": "1008 Fitzuren Road, Wilmington, CA, 90744",
        "Street": "1008 Fitzuren Road",
        "City": "Wilmington",
        "State": "CA",
        "Zip Code": "90744",
        "Latitude": "37.99845390000001",
        "Longitude": "-121.8209848"
    },
    "Chevron Gas": {
        "Name": "Chevron Gas",
        "Hours": "Mon-Fri: 7:00am - 10:00pm, Sat-Sun: 8:00am - 10:00pm",
        "Address": "19153 I-45, Wolfforth, TX, 79382",
        "Street": "19153 I-45",
        "City": "Wolfforth",
        "State": "TX",
        "Zip Code": "79382",
        "Latitude": "30.1779334",
        "Longitude": "-95.4507241"
    },
    "Arco": {
        "Name": "Arco",
        "Hours": "24/7",
        "Address": "14475 Palmdale Rd, Wilmington, CA, 90744",
        "Street": "14475 Palmdale Rd",
        "City": "Wilmington",
        "State": "CA",
        "Zip Code": "90744",
        "Latitude": "34.50617",
        "Longitude": "-117.34735"
    },
    "Rodeo Smokeshop": {
        "Name": "Rodeo Smokeshop",
        "Hours": "24/7",
        "Address": "459 S Azusa Ave a1, Wilmington, CA, 90744",
        "Street": "459 S Azusa Ave a1",
        "City": "Wilmington",
        "State": "CA",
        "Zip Code": "90744",
        "Latitude": "34.1146095",
        "Longitude": "-117.908194"
    },
    "The Giggle Shack": {
        "Name": "The Giggle Shack",
        "Hours": "24/7",
        "Address": "1906 East California Ave Suite A, Wilmington, CA, 90744",
        "Street": "1906 East California Ave Suite A",
        "City": "Wilmington",
        "State": "CA",
        "Zip Code": "90744",
        "Latitude": "35.36943",
        "Longitude": "-118.9729481"
    },
    "Harry's Market": {
        "Name": "Harry's Market",
        "Hours": "24/7",
        "Address": "731 S H St, Wilmington, CA, 90744",
        "Street": "731 S H St",
        "City": "Wilmington",
        "State": "CA",
        "Zip Code": "90744",
        "Latitude": "35.3469093",
        "Longitude": "-119.0215111"
    },
    "Beaumont Service Station": {
        "Name": "Beaumont Service Station",
        "Hours": "24/7",
        "Address": "97 Beaumont Ave, Wilmington, CA, 90744",
        "Street": "97 Beaumont Ave",
        "City": "Wilmington",
        "State": "CA",
        "Zip Code": "90744",
        "Latitude": "33.9212664",
        "Longitude": "-116.977634"
    },
    "Pit Stop Liquor": {
        "Name": "Pit Stop Liquor",
        "Hours": "24/7",
        "Address": "17811 Lakewood Blvd, Wilmington, CA, 90744",
        "Street": "17811 Lakewood Blvd",
        "City": "Wilmington",
        "State": "CA",
        "Zip Code": "90744",
        "Latitude": "33.8707603",
        "Longitude": "-118.1428746"
    },
    "Rosecrans Spirit Shop": {
        "Name": "Rosecrans Spirit Shop",
        "Hours": "24/7",
        "Address": "10466 Artesia Blvd, Wilmington, CA, 90744",
        "Street": "10466 Artesia Blvd",
        "City": "Wilmington",
        "State": "CA",
        "Zip Code": "90744",
        "Latitude": "33.8724112",
        "Longitude": "-118.1107705"
    },
    "Brea Mall": {
        "Name": "Brea Mall",
        "Hours": "24/7",
        "Address": "1065 Brea Mall, Wilmington, CA, 90744",
        "Street": "1065 Brea Mall",
        "City": "Wilmington",
        "State": "CA",
        "Zip Code": "90744",
        "Latitude": "33.9156061",
        "Longitude": "-117.8865141"
    },
    "Midtown Market": {
        "Name": "Midtown Market",
        "Hours": "24/7",
        "Address": "249 Visitacion Ave, Wilmington, CA, 90744",
        "Street": "249 Visitacion Ave",
        "City": "Wilmington",
        "State": "CA",
        "Zip Code": "90744",
        "Latitude": "37.682699",
        "Longitude": "-122.4035199"
    },
    "Kwik Serve": {
        "Name": "Kwik Serve",
        "Hours": "24/7",
        "Address": "1235 Centinela Ave, Wilmington, CA, 90744",
        "Street": "1235 Centinela Ave",
        "City": "Wilmington",
        "State": "CA",
        "Zip Code": "90744",
        "Latitude": "33.9763215",
        "Longitude": "-118.3609644"
    },
    "Mobil Gas": {
        "Name": "Mobil Gas",
        "Hours": "Mon-Sun: 11:00am - 7:00pm",
        "Address": "2516 S Saunders St, Winston-Salem, NC, 27103",
        "Street": "2516 S Saunders St",
        "City": "Winston-Salem",
        "State": "NC",
        "Zip Code": "27103",
        "Latitude": "35.7491874",
        "Longitude": "-78.6495941"
    },
    "Calabasas Auto Spa/Shell": {
        "Name": "Calabasas Auto Spa/Shell",
        "Hours": "24/7",
        "Address": "24115 Calabasas Road, Wilmington, CA, 90744",
        "Street": "24115 Calabasas Road",
        "City": "Wilmington",
        "State": "CA",
        "Zip Code": "90744",
        "Latitude": "34.1525915",
        "Longitude": "-118.6524235"
    },
    "Camarillo Car Wash": {
        "Name": "Camarillo Car Wash",
        "Hours": "24/7",
        "Address": "4007 Adolfo Rd, Wilmington, CA, 90744",
        "Street": "4007 Adolfo Rd",
        "City": "Wilmington",
        "State": "CA",
        "Zip Code": "90744",
        "Latitude": "34.2311041",
        "Longitude": "-119.0186841"
    },
    "Country Time Liquor": {
        "Name": "Country Time Liquor",
        "Hours": "24/7",
        "Address": "2591 S Bascom Ave Suite A, Wilmington, CA, 90744",
        "Street": "2591 S Bascom Ave Suite A",
        "City": "Wilmington",
        "State": "CA",
        "Zip Code": "90744",
        "Latitude": "37.275625",
        "Longitude": "-121.9339339"
    },
    "Bottle Bin Liquor": {
        "Name": "Bottle Bin Liquor",
        "Hours": "24/7",
        "Address": "20915 Vanowen St, Wilmington, CA, 90744",
        "Street": "20915 Vanowen St",
        "City": "Wilmington",
        "State": "CA",
        "Zip Code": "90744",
        "Latitude": "34.1940597",
        "Longitude": "-118.5891217"
    },
    "Deep Liquor": {
        "Name": "Deep Liquor",
        "Hours": "24/7",
        "Address": "22058 Center Street, Wilmington, CA, 90744",
        "Street": "22058 Center Street",
        "City": "Wilmington",
        "State": "CA",
        "Zip Code": "90744",
        "Latitude": "33.7857948",
        "Longitude": "-118.2643567"
    },
    "All Star Smoke Shop": {
        "Name": "All Star Smoke Shop",
        "Hours": "24/7",
        "Address": "1460 Mitchell Rd STE H, Wilmington, CA, 90744",
        "Street": "1460 Mitchell Rd STE H",
        "City": "Wilmington",
        "State": "CA",
        "Zip Code": "90744",
        "Latitude": "37.60979270000001",
        "Longitude": "-120.9383298"
    },
    "California Park Market": {
        "Name": "California Park Market",
        "Hours": "24/7",
        "Address": "800 Bruce Road #400, Wilmington, CA, 90744",
        "Street": "800 Bruce Road #400",
        "City": "Wilmington",
        "State": "CA",
        "Zip Code": "90744",
        "Latitude": "39.7509334",
        "Longitude": "-121.7949971"
    },
    "Ray's Liquor": {
        "Name": "Ray's Liquor",
        "Hours": "24/7",
        "Address": "207 Walnut Street, Wilmington, CA, 90744",
        "Street": "207 Walnut Street",
        "City": "Wilmington",
        "State": "CA",
        "Zip Code": "90744",
        "Latitude": "33.6276719",
        "Longitude": "-117.9505971"
    },
    "City Liquor Market": {
        "Name": "City Liquor Market",
        "Hours": "24/7",
        "Address": "3028 Esplanade A, Wilmington, CA, 90744",
        "Street": "3028 Esplanade A",
        "City": "Wilmington",
        "State": "CA",
        "Zip Code": "90744",
        "Latitude": "33.7857948",
        "Longitude": "-118.2643567"
    },
    "Wine Cellar": {
        "Name": "Wine Cellar",
        "Hours": "24/7",
        "Address": "958 East Ave STE. D, Wilmington, CA, 90744",
        "Street": "958 East Ave STE. D",
        "City": "Wilmington",
        "State": "CA",
        "Zip Code": "90744",
        "Latitude": "34.5870053",
        "Longitude": "-117.9250524"
    },
    "Gift & Smoke Shop": {
        "Name": "Gift & Smoke Shop",
        "Hours": "24/7",
        "Address": "5678 Riverside Dr, Wilmington, CA, 90744",
        "Street": "5678 Riverside Dr",
        "City": "Wilmington",
        "State": "CA",
        "Zip Code": "90744",
        "Latitude": "34.0196139",
        "Longitude": "-117.6810908"
    },
    "S & B Market": {
        "Name": "S & B Market",
        "Hours": "24/7",
        "Address": "16307 Chino Corona Rd, Wilmington, CA, 90744",
        "Street": "16307 Chino Corona Rd",
        "City": "Wilmington",
        "State": "CA",
        "Zip Code": "90744",
        "Latitude": "33.9572332",
        "Longitude": "-117.632724"
    },
    "Santa Fe Meats": {
        "Name": "Santa Fe Meats",
        "Hours": "24/7",
        "Address": "2514 Main Street, Wilmington, CA, 90744",
        "Street": "2514 Main Street",
        "City": "Wilmington",
        "State": "CA",
        "Zip Code": "90744",
        "Latitude": "34.0252871",
        "Longitude": "-118.2684184"
    },
    "M & J Liquor": {
        "Name": "M & J Liquor",
        "Hours": "24/7",
        "Address": "5944 Sperry Drive, Wilmington, CA, 90744",
        "Street": "5944 Sperry Drive",
        "City": "Wilmington",
        "State": "CA",
        "Zip Code": "90744",
        "Latitude": "38.6746715",
        "Longitude": "-121.2931151"
    },
    "ARCO": {
        "Name": "ARCO",
        "Hours": "24/7",
        "Address": "10951 E Imperial Hwy, Wilmington, CA, 90744",
        "Street": "10951 E Imperial Hwy",
        "City": "Wilmington",
        "State": "CA",
        "Zip Code": "90744",
        "Latitude": "33.9174061",
        "Longitude": "-118.0995573"
    },
    "Pic N Pac": {
        "Name": "Pic N Pac",
        "Hours": "24/7",
        "Address": "1700 Willow Pass Rd B, Wilmington, CA, 90744",
        "Street": "1700 Willow Pass Rd B",
        "City": "Wilmington",
        "State": "CA",
        "Zip Code": "90744",
        "Latitude": "37.9726694",
        "Longitude": "-122.0402393"
    },
    "Rowjani Fast & Easy": {
        "Name": "Rowjani Fast & Easy",
        "Hours": "24/7",
        "Address": "4475 Treat Blvd, Wilmington, CA, 90744",
        "Street": "4475 Treat Blvd",
        "City": "Wilmington",
        "State": "CA",
        "Zip Code": "90744",
        "Latitude": "37.9634463",
        "Longitude": "-121.9940516"
    },
    "Smoke Smoke Shop": {
        "Name": "Smoke Smoke Shop",
        "Hours": "24/7",
        "Address": "3622 Willow Pass Rd, Wilmington, CA, 90744",
        "Street": "3622 Willow Pass Rd",
        "City": "Wilmington",
        "State": "CA",
        "Zip Code": "90744",
        "Latitude": "37.9863716",
        "Longitude": "-122.0099461"
    },
    "Del Lago Liquor": {
        "Name": "Del Lago Liquor",
        "Hours": "24/7",
        "Address": "1276 Border Ave, Wilmington, CA, 90744",
        "Street": "1276 Border Ave",
        "City": "Wilmington",
        "State": "CA",
        "Zip Code": "90744",
        "Latitude": "33.8694039",
        "Longitude": "-117.5936417"
    },
    "Costa Mesa Wine and Spirits": {
        "Name": "Costa Mesa Wine and Spirits",
        "Hours": "24/7",
        "Address": "891 Baker St #B1, Wilmington, CA, 90744",
        "Street": "891 Baker St #B1",
        "City": "Wilmington",
        "State": "CA",
        "Zip Code": "90744",
        "Latitude": "33.6797537",
        "Longitude": "-117.89421"
    },
    "Sunshine Liquor": {
        "Name": "Sunshine Liquor",
        "Hours": "24/7",
        "Address": "724 W 19th St A, Wilmington, CA, 90744",
        "Street": "724 W 19th St A",
        "City": "Wilmington",
        "State": "CA",
        "Zip Code": "90744",
        "Latitude": "33.7857948",
        "Longitude": "-118.2643567"
    },
    "Costa Mesa Wine & Spirits": {
        "Name": "Costa Mesa Wine & Spirits",
        "Hours": "24/7",
        "Address": "891 Baker Street #B1, Wilmington, CA, 90744",
        "Street": "891 Baker Street #B1",
        "City": "Wilmington",
        "State": "CA",
        "Zip Code": "90744",
        "Latitude": "33.6797548",
        "Longitude": "-117.8939583"
    },
    "Mobil Mart": {
        "Name": "Mobil Mart",
        "Hours": "Mon-Sun: 6:00am -12:00am",
        "Address": "161 W 9 Mile Rd, Ypsilanti, MI, 48197",
        "Street": "161 W 9 Mile Rd",
        "City": "Ypsilanti",
        "State": "MI",
        "Zip Code": "48197",
        "Latitude": "42.460377",
        "Longitude": "-83.135722"
    },
    "Fast & Easy Mart": {
        "Name": "Fast & Easy Mart",
        "Hours": "24/7",
        "Address": "1601 Research Park Dr, Wilmington, CA, 90744",
        "Street": "1601 Research Park Dr",
        "City": "Wilmington",
        "State": "CA",
        "Zip Code": "90744",
        "Latitude": "38.5403534",
        "Longitude": "-121.7319869"
    },
    "Mobil Gas Station": {
        "Name": "Mobil Gas Station",
        "Hours": "24/7",
        "Address": "721 S Congress Ave, Zephyrhills, FL, 33542",
        "Street": "721 S Congress Ave",
        "City": "Zephyrhills",
        "State": "FL",
        "Zip Code": "33542",
        "Latitude": "26.666048",
        "Longitude": "-80.0885405"
    },
    "Sunshine Market": {
        "Name": "Sunshine Market",
        "Hours": "24/7",
        "Address": "8830 Rosecrans Ave, Wilmington, CA, 90744",
        "Street": "8830 Rosecrans Ave",
        "City": "Wilmington",
        "State": "CA",
        "Zip Code": "90744",
        "Latitude": "33.9035218",
        "Longitude": "-118.1448859"
    },
    "Dublin Liquor & Wine": {
        "Name": "Dublin Liquor & Wine",
        "Hours": "24/7",
        "Address": "4562 Dublin Blvd, Wilmington, CA, 90744",
        "Street": "4562 Dublin Blvd",
        "City": "Wilmington",
        "State": "CA",
        "Zip Code": "90744",
        "Latitude": "37.704792",
        "Longitude": "-121.88156"
    },
    "A1 Liquor": {
        "Name": "A1 Liquor",
        "Hours": "24/7",
        "Address": "7174 Regional St, Wilmington, CA, 90744",
        "Street": "7174 Regional St",
        "City": "Wilmington",
        "State": "CA",
        "Zip Code": "90744",
        "Latitude": "37.7040547",
        "Longitude": "-121.9356289"
    },
    "Imperial Valley Mall": {
        "Name": "Imperial Valley Mall",
        "Hours": "24/7",
        "Address": "3451 South Dogwood Avenue, Wilmington, CA, 90744",
        "Street": "3451 South Dogwood Avenue",
        "City": "Wilmington",
        "State": "CA",
        "Zip Code": "90744",
        "Latitude": "32.7622302",
        "Longitude": "-115.5307291"
    },
    "Cortada Market": {
        "Name": "Cortada Market",
        "Hours": "24/7",
        "Address": "9701 Cortada St, Wilmington, CA, 90744",
        "Street": "9701 Cortada St",
        "City": "Wilmington",
        "State": "CA",
        "Zip Code": "90744",
        "Latitude": "34.0647539",
        "Longitude": "-118.0584245"
    },
    "White Oak Shell Gas Station": {
        "Name": "White Oak Shell Gas Station",
        "Hours": "24/7",
        "Address": "17660 Burbank Blvd, Wilmington, CA, 90744",
        "Street": "17660 Burbank Blvd",
        "City": "Wilmington",
        "State": "CA",
        "Zip Code": "90744",
        "Latitude": "34.1720416",
        "Longitude": "-118.5181215"
    },
    "Neighboorhood Liquor & Food Market": {
        "Name": "Neighboorhood Liquor & Food Market",
        "Hours": "24/7",
        "Address": "17883 Foothill Blvd, Wilmington, CA, 90744",
        "Street": "17883 Foothill Blvd",
        "City": "Wilmington",
        "State": "CA",
        "Zip Code": "90744",
        "Latitude": "34.106354",
        "Longitude": "-117.414289"
    },
    "Lotus Liquor": {
        "Name": "Lotus Liquor",
        "Hours": "24/7",
        "Address": "17951 Magnolia St, Wilmington, CA, 90744",
        "Street": "17951 Magnolia St",
        "City": "Wilmington",
        "State": "CA",
        "Zip Code": "90744",
        "Latitude": "33.7019568",
        "Longitude": "-117.972241"
    },
    "Bin & Barrel": {
        "Name": "Bin & Barrel",
        "Hours": "24/7",
        "Address": "42314 Fremont Blvd, Wilmington, CA, 90744",
        "Street": "42314 Fremont Blvd",
        "City": "Wilmington",
        "State": "CA",
        "Zip Code": "90744",
        "Latitude": "37.5232515",
        "Longitude": "-121.9570207"
    },
    "OO Liquor Mart": {
        "Name": "OO Liquor Mart",
        "Hours": "24/7",
        "Address": "34460 Fremont Blvd Suite G, Wilmington, CA, 90744",
        "Street": "34460 Fremont Blvd Suite G",
        "City": "Wilmington",
        "State": "CA",
        "Zip Code": "90744",
        "Latitude": "37.57498220000001",
        "Longitude": "-122.0387513"
    },
    "Save On Liquor": {
        "Name": "Save On Liquor",
        "Hours": "24/7",
        "Address": "4988 N Fresno St, Wilmington, CA, 90744",
        "Street": "4988 N Fresno St",
        "City": "Wilmington",
        "State": "CA",
        "Zip Code": "90744",
        "Latitude": "36.8080023",
        "Longitude": "-119.7809193"
    },
    "Get N Go Gas Station": {
        "Name": "Get N Go Gas Station",
        "Hours": "24/7",
        "Address": "1389 S Maple Ave, Wilmington, CA, 90744",
        "Street": "1389 S Maple Ave",
        "City": "Wilmington",
        "State": "CA",
        "Zip Code": "90744",
        "Latitude": "34.0335767",
        "Longitude": "-118.2580451"
    },
    "City Market 11": {
        "Name": "City Market 11",
        "Hours": "24/7",
        "Address": "333 N Placentia Ave, Wilmington, CA, 90744",
        "Street": "333 N Placentia Ave",
        "City": "Wilmington",
        "State": "CA",
        "Zip Code": "90744",
        "Latitude": "33.873184",
        "Longitude": "-117.8795278"
    },
    "J&J Liquor": {
        "Name": "J&J Liquor",
        "Hours": "24/7",
        "Address": "2238 W Orangethorpe Ave, Wilmington, CA, 90744",
        "Street": "2238 W Orangethorpe Ave",
        "City": "Wilmington",
        "State": "CA",
        "Zip Code": "90744",
        "Latitude": "33.8587654",
        "Longitude": "-117.9678027"
    },
    "Arco Gas Station": {
        "Name": "Arco Gas Station",
        "Hours": "24/7",
        "Address": "8919 Foothill Blvd, Wilmington, CA, 90744",
        "Street": "8919 Foothill Blvd",
        "City": "Wilmington",
        "State": "CA",
        "Zip Code": "90744",
        "Latitude": "34.261849",
        "Longitude": "-118.3259718"
    },
    "One Stop Tobacco": {
        "Name": "One Stop Tobacco",
        "Hours": "24/7",
        "Address": "664 Freemont Ln, Wilmington, CA, 90744",
        "Street": "664 Freemont Ln",
        "City": "Wilmington",
        "State": "CA",
        "Zip Code": "90744",
        "Latitude": "33.7857948",
        "Longitude": "-118.2643567"
    },
    "United Market": {
        "Name": "United Market",
        "Hours": "24/7",
        "Address": "426 E 7th St, Wilmington, CA, 90744",
        "Street": "426 E 7th St",
        "City": "Wilmington",
        "State": "CA",
        "Zip Code": "90744",
        "Latitude": "33.7751752",
        "Longitude": "-118.1869009"
    },
    "Perry's Liquor": {
        "Name": "Perry's Liquor",
        "Hours": "24/7",
        "Address": "27220 Hesperian Blvd, Wilmington, CA, 90744",
        "Street": "27220 Hesperian Blvd",
        "City": "Wilmington",
        "State": "CA",
        "Zip Code": "90744",
        "Latitude": "33.8227275",
        "Longitude": "-118.2246103"
    },
    "Marina Smoke Shop": {
        "Name": "Marina Smoke Shop",
        "Hours": "24/7",
        "Address": "6041 Bolsa Ave Ste 4, Wilmington, CA, 90744",
        "Street": "6041 Bolsa Ave Ste 4",
        "City": "Wilmington",
        "State": "CA",
        "Zip Code": "90744",
        "Latitude": "33.7449196",
        "Longitude": "-118.0229548"
    },
    "Rivergrade Service Station": {
        "Name": "Rivergrade Service Station",
        "Hours": "24/7",
        "Address": "5200 Rivergrade Rd, Wilmington, CA, 90744",
        "Street": "5200 Rivergrade Rd",
        "City": "Wilmington",
        "State": "CA",
        "Zip Code": "90744",
        "Latitude": "34.1071558",
        "Longitude": "-117.9737739"
    },
    "Circle Liquor Mini Mart": {
        "Name": "Circle Liquor Mini Mart",
        "Hours": "24/7",
        "Address": "1851 W La Habra Blvd, Wilmington, CA, 90744",
        "Street": "1851 W La Habra Blvd",
        "City": "Wilmington",
        "State": "CA",
        "Zip Code": "90744",
        "Latitude": "33.9319551",
        "Longitude": "-117.9668608"
    },
    "Harbor Mart Liquor": {
        "Name": "Harbor Mart Liquor",
        "Hours": "24/7",
        "Address": "320 N Harbor Blvd, Wilmington, CA, 90744",
        "Street": "320 N Harbor Blvd",
        "City": "Wilmington",
        "State": "CA",
        "Zip Code": "90744",
        "Latitude": "33.7453106",
        "Longitude": "-118.2797163"
    },
    "Sierra Market": {
        "Name": "Sierra Market",
        "Hours": "Mon-Fri: 7:00am - 10:00pm, Sat-Sun: 8:00am - 10:00pm",
        "Address": "7777 Warren Parkway #300, Wolfforth, TX, 79382",
        "Street": "7777 Warren Parkway #300",
        "City": "Wolfforth",
        "State": "TX",
        "Zip Code": "79382",
        "Latitude": "33.1062994",
        "Longitude": "-96.81839409999999"
    },
    "Circle K Gas": {
        "Name": "Circle K Gas",
        "Hours": "24/7",
        "Address": "1200 S Glendora Ave, Wilmington, CA, 90744",
        "Street": "1200 S Glendora Ave",
        "City": "Wilmington",
        "State": "CA",
        "Zip Code": "90744",
        "Latitude": "34.0548921",
        "Longitude": "-117.9385157"
    },
    "Bubbles Liquor": {
        "Name": "Bubbles Liquor",
        "Hours": "24/7",
        "Address": "15608 E. Gale Ave. Suite B, Wilmington, CA, 90744",
        "Street": "15608 E. Gale Ave. Suite B",
        "City": "Wilmington",
        "State": "CA",
        "Zip Code": "90744",
        "Latitude": "34.0114042",
        "Longitude": "-117.9668841"
    },
    "Liquor Deli": {
        "Name": "Liquor Deli",
        "Hours": "24/7",
        "Address": "595 S Azusa Ave, Wilmington, CA, 90744",
        "Street": "595 S Azusa Ave",
        "City": "Wilmington",
        "State": "CA",
        "Zip Code": "90744",
        "Latitude": "34.01154450000001",
        "Longitude": "-117.9243191"
    },
    "AV Liquor & Jr Market": {
        "Name": "AV Liquor & Jr Market",
        "Hours": "24/7",
        "Address": "44201 20th St W, Wilmington, CA, 90744",
        "Street": "44201 20th St W",
        "City": "Wilmington",
        "State": "CA",
        "Zip Code": "90744",
        "Latitude": "34.6859026",
        "Longitude": "-118.1660946"
    },
    "Liquor Mart": {
        "Name": "Liquor Mart",
        "Hours": "24/7",
        "Address": "10497 San Diego Mission Rd, Wilmington, CA, 90744",
        "Street": "10497 San Diego Mission Rd",
        "City": "Wilmington",
        "State": "CA",
        "Zip Code": "90744",
        "Latitude": "32.7844085",
        "Longitude": "-117.1105781"
    },
    "San Francisco Premium Outlets": {
        "Name": "San Francisco Premium Outlets",
        "Hours": "24/7",
        "Address": "2774 Livermore Outlets Dr, Wilmington, CA, 90744",
        "Street": "2774 Livermore Outlets Dr",
        "City": "Wilmington",
        "State": "CA",
        "Zip Code": "90744",
        "Latitude": "37.6987272",
        "Longitude": "-121.8440481"
    },
    "Smoke Shop of Loma Linda": {
        "Name": "Smoke Shop of Loma Linda",
        "Hours": "24/7",
        "Address": "25655 Redlands Blvd #C, Wilmington, CA, 90744",
        "Street": "25655 Redlands Blvd #C",
        "City": "Wilmington",
        "State": "CA",
        "Zip Code": "90744",
        "Latitude": "34.0625672",
        "Longitude": "-117.244601"
    },
    "Shell Gas": {
        "Name": "Shell Gas",
        "Hours": "Mon-Fri: 7:00am - 10:00pm, Sat-Sun: 8:00am - 10:00pm",
        "Address": "3028 Shaver St, Wolfforth, TX, 79382",
        "Street": "3028 Shaver St",
        "City": "Wolfforth",
        "State": "TX",
        "Zip Code": "79382",
        "Latitude": "33.5059189",
        "Longitude": "-102.0090575"
    },
    "Smokin 4 Less": {
        "Name": "Smokin 4 Less",
        "Hours": "24/7",
        "Address": "644 N H St, Wilmington, CA, 90744",
        "Street": "644 N H St",
        "City": "Wilmington",
        "State": "CA",
        "Zip Code": "90744",
        "Latitude": "34.11109",
        "Longitude": "-117.3012101"
    },
    "Beer King Market": {
        "Name": "Beer King Market",
        "Hours": "24/7",
        "Address": "1203 E 4th St, Wilmington, CA, 90744",
        "Street": "1203 E 4th St",
        "City": "Wilmington",
        "State": "CA",
        "Zip Code": "90744",
        "Latitude": "33.7857948",
        "Longitude": "-118.2643567"
    },
    "Mobil": {
        "Name": "Mobil",
        "Hours": "Mon-Fri: 5:30am - 9:00pm, Sat: 7:00am - 9:00pm, Sun: 8:00am - 9:00pm",
        "Address": "10400 N Michigan Rd, Zionsville, IN, 46077",
        "Street": "10400 N Michigan Rd",
        "City": "Zionsville",
        "State": "IN",
        "Zip Code": "46077",
        "Latitude": "39.9372598",
        "Longitude": "-86.2355947"
    },
    "Sherman Car Inc": {
        "Name": "Sherman Car Inc",
        "Hours": "24/7",
        "Address": "1965 E Artesia Blvd, Wilmington, CA, 90744",
        "Street": "1965 E Artesia Blvd",
        "City": "Wilmington",
        "State": "CA",
        "Zip Code": "90744",
        "Latitude": "33.874968",
        "Longitude": "-118.1693443"
    },
    "76 Gas Station": {
        "Name": "76 Gas Station",
        "Hours": "24/7",
        "Address": "3678 Foothill Blvd, Wilmington, CA, 90744",
        "Street": "3678 Foothill Blvd",
        "City": "Wilmington",
        "State": "CA",
        "Zip Code": "90744",
        "Latitude": "34.1498426",
        "Longitude": "-118.0738361"
    },
    "Westwood Mobil": {
        "Name": "Westwood Mobil",
        "Hours": "24/7",
        "Address": "10863 West Olympic Blvd, Wilmington, CA, 90744",
        "Street": "10863 West Olympic Blvd",
        "City": "Wilmington",
        "State": "CA",
        "Zip Code": "90744",
        "Latitude": "34.0439733",
        "Longitude": "-118.4323058"
    },
    "Century City": {
        "Name": "Century City",
        "Hours": "24/7",
        "Address": "10389 Santa Monica Blvd, Wilmington, CA, 90744",
        "Street": "10389 Santa Monica Blvd",
        "City": "Wilmington",
        "State": "CA",
        "Zip Code": "90744",
        "Latitude": "34.0579366",
        "Longitude": "-118.4240686"
    },
    "DNA Liquor": {
        "Name": "DNA Liquor",
        "Hours": "24/7",
        "Address": "Liquor 247 E Manchester Ave, Wilmington, CA, 90744",
        "Street": "Liquor 247 E Manchester Ave",
        "City": "Wilmington",
        "State": "CA",
        "Zip Code": "90744",
        "Latitude": "33.9603017",
        "Longitude": "-118.2702185"
    },
    "Paco's Liquor": {
        "Name": "Paco's Liquor",
        "Hours": "24/7",
        "Address": "5048 E 3rd St., Wilmington, CA, 90744",
        "Street": "5048 E 3rd St.",
        "City": "Wilmington",
        "State": "CA",
        "Zip Code": "90744",
        "Latitude": "34.0332179",
        "Longitude": "-118.1571791"
    },
    "Smoke EZ": {
        "Name": "Smoke EZ",
        "Hours": "24/7",
        "Address": "16925 Vanowen St #2, Wilmington, CA, 90744",
        "Street": "16925 Vanowen St #2",
        "City": "Wilmington",
        "State": "CA",
        "Zip Code": "90744",
        "Latitude": "34.194512",
        "Longitude": "-118.5020324"
    },
    "Mr Spirit Liquor": {
        "Name": "Mr Spirit Liquor",
        "Hours": "24/7",
        "Address": "6818 S Western Ave, Wilmington, CA, 90744",
        "Street": "6818 S Western Ave",
        "City": "Wilmington",
        "State": "CA",
        "Zip Code": "90744",
        "Latitude": "33.9772671",
        "Longitude": "-118.3086373"
    },
    "Arco #1 Fuel": {
        "Name": "Arco #1 Fuel",
        "Hours": "24/7",
        "Address": "655 N Western Ave, Wilmington, CA, 90744",
        "Street": "655 N Western Ave",
        "City": "Wilmington",
        "State": "CA",
        "Zip Code": "90744",
        "Latitude": "34.0831692",
        "Longitude": "-118.3092909"
    },
    "Smoke and Market (LA Tobacco Mart)": {
        "Name": "Smoke and Market (LA Tobacco Mart)",
        "Hours": "24/7",
        "Address": "1252 E Florence Ave, Wilmington, CA, 90744",
        "Street": "1252 E Florence Ave",
        "City": "Wilmington",
        "State": "CA",
        "Zip Code": "90744",
        "Latitude": "33.9743726",
        "Longitude": "-118.2524214"
    },
    "New Orleans Market": {
        "Name": "New Orleans Market",
        "Hours": "24/7",
        "Address": "2718 W Vernon Ave, Wilmington, CA, 90744",
        "Street": "2718 W Vernon Ave",
        "City": "Wilmington",
        "State": "CA",
        "Zip Code": "90744",
        "Latitude": "34.0035162",
        "Longitude": "-118.3232565"
    },
    "Louie's Liquor Market": {
        "Name": "Louie's Liquor Market",
        "Hours": "24/7",
        "Address": "908 E Jefferson Blvd, Wilmington, CA, 90744",
        "Street": "908 E Jefferson Blvd",
        "City": "Wilmington",
        "State": "CA",
        "Zip Code": "90744",
        "Latitude": "34.0132746",
        "Longitude": "-118.2608395"
    },
    "Velero": {
        "Name": "Velero",
        "Hours": "24/7",
        "Address": "14204 S Figueroa St, Wilmington, CA, 90744",
        "Street": "14204 S Figueroa St",
        "City": "Wilmington",
        "State": "CA",
        "Zip Code": "90744",
        "Latitude": "33.9021067",
        "Longitude": "-118.2822736"
    },
    "Joe's Mini Market": {
        "Name": "Joe's Mini Market",
        "Hours": "24/7",
        "Address": "5200 York Blvd, Wilmington, CA, 90744",
        "Street": "5200 York Blvd",
        "City": "Wilmington",
        "State": "CA",
        "Zip Code": "90744",
        "Latitude": "34.1205075",
        "Longitude": "-118.2025639"
    },
    "Hollywood Super Mart": {
        "Name": "Hollywood Super Mart",
        "Hours": "24/7",
        "Address": "6213 Franklin Ave, Wilmington, CA, 90744",
        "Street": "6213 Franklin Ave",
        "City": "Wilmington",
        "State": "CA",
        "Zip Code": "90744",
        "Latitude": "34.1055223",
        "Longitude": "-118.3246893"
    },
    "Dollar Mart": {
        "Name": "Dollar Mart",
        "Hours": "24/7",
        "Address": "12322 Long Beach Blvd, Wilmington, CA, 90744",
        "Street": "12322 Long Beach Blvd",
        "City": "Wilmington",
        "State": "CA",
        "Zip Code": "90744",
        "Latitude": "33.8812781",
        "Longitude": "-118.2047854"
    },
    "Martinez Liquor Market": {
        "Name": "Martinez Liquor Market",
        "Hours": "24/7",
        "Address": "2300 Martinez Ave, Wilmington, CA, 90744",
        "Street": "2300 Martinez Ave",
        "City": "Wilmington",
        "State": "CA",
        "Zip Code": "90744",
        "Latitude": "38.0193657",
        "Longitude": "-122.1341321"
    },
    "El Barato Liquor and Market": {
        "Name": "El Barato Liquor and Market",
        "Hours": "24/7",
        "Address": "5306 Atlantic Blvd, Wilmington, CA, 90744",
        "Street": "5306 Atlantic Blvd",
        "City": "Wilmington",
        "State": "CA",
        "Zip Code": "90744",
        "Latitude": "33.9914469",
        "Longitude": "-118.1842291"
    },
    "99 Plus Outlet & Smokeshop": {
        "Name": "99 Plus Outlet & Smokeshop",
        "Hours": "24/7",
        "Address": "1620 Crows Landing Rd., Wilmington, CA, 90744",
        "Street": "1620 Crows Landing Rd.",
        "City": "Wilmington",
        "State": "CA",
        "Zip Code": "90744",
        "Latitude": "37.6061951",
        "Longitude": "-120.9926035"
    },
    "A & A Smoke Shop": {
        "Name": "A & A Smoke Shop",
        "Hours": "24/7",
        "Address": "4213 McHenry Ave, Wilmington, CA, 90744",
        "Street": "4213 McHenry Ave",
        "City": "Wilmington",
        "State": "CA",
        "Zip Code": "90744",
        "Latitude": "37.7004514",
        "Longitude": "-120.9953545"
    },
    "Puff \"N\" Up Smoke Shop": {
        "Name": "Puff \"N\" Up Smoke Shop",
        "Hours": "24/7",
        "Address": "24430 Alessandro Boulevard, Wilmington, CA, 90744",
        "Street": "24430 Alessandro Boulevard",
        "City": "Wilmington",
        "State": "CA",
        "Zip Code": "90744",
        "Latitude": "33.9188035",
        "Longitude": "-117.2368007"
    },
    "Farm Market": {
        "Name": "Farm Market",
        "Hours": "24/7",
        "Address": "14058 Redlands Blvd, Wilmington, CA, 90744",
        "Street": "14058 Redlands Blvd",
        "City": "Wilmington",
        "State": "CA",
        "Zip Code": "90744",
        "Latitude": "33.916703",
        "Longitude": "-117.156167"
    },
    "Liquor & Tobacco": {
        "Name": "Liquor & Tobacco",
        "Hours": "24/7",
        "Address": "1040 Rengstorff Ave #2A, Wilmington, CA, 90744",
        "Street": "1040 Rengstorff Ave #2A",
        "City": "Wilmington",
        "State": "CA",
        "Zip Code": "90744",
        "Latitude": "37.4192541",
        "Longitude": "-122.0936939"
    },
    "Napa Premium Outlets": {
        "Name": "Napa Premium Outlets",
        "Hours": "24/7",
        "Address": "629 Factory Stores Dr, Wilmington, CA, 90744",
        "Street": "629 Factory Stores Dr",
        "City": "Wilmington",
        "State": "CA",
        "Zip Code": "90744",
        "Latitude": "33.7857948",
        "Longitude": "-118.2643567"
    },
    "Party Time Market 6": {
        "Name": "Party Time Market 6",
        "Hours": "24/7",
        "Address": "2945 Highland Ave, Wilmington, CA, 90744",
        "Street": "2945 Highland Ave",
        "City": "Wilmington",
        "State": "CA",
        "Zip Code": "90744",
        "Latitude": "34.046226",
        "Longitude": "-118.3440735"
    },
    "Bob's Discount Liquor": {
        "Name": "Bob's Discount Liquor",
        "Hours": "24/7",
        "Address": "3585 Benton St, Wilmington, CA, 90744",
        "Street": "3585 Benton St",
        "City": "Wilmington",
        "State": "CA",
        "Zip Code": "90744",
        "Latitude": "37.3458768",
        "Longitude": "-121.9947712"
    },
    "Boss Liquor": {
        "Name": "Boss Liquor",
        "Hours": "24/7",
        "Address": "6745 Watt Ave, Wilmington, CA, 90744",
        "Street": "6745 Watt Ave",
        "City": "Wilmington",
        "State": "CA",
        "Zip Code": "90744",
        "Latitude": "38.6897594",
        "Longitude": "-121.3843616"
    },
    "Louie's Liquor II": {
        "Name": "Louie's Liquor II",
        "Hours": "24/7",
        "Address": "13360 Sherman Way, Wilmington, CA, 90744",
        "Street": "13360 Sherman Way",
        "City": "Wilmington",
        "State": "CA",
        "Zip Code": "90744",
        "Latitude": "34.20080600000001",
        "Longitude": "-118.4245511"
    },
    "Gateway Smoke": {
        "Name": "Gateway Smoke",
        "Hours": "24/7",
        "Address": "5936 San Pablo Ave, Wilmington, CA, 90744",
        "Street": "5936 San Pablo Ave",
        "City": "Wilmington",
        "State": "CA",
        "Zip Code": "90744",
        "Latitude": "37.8428194",
        "Longitude": "-122.2834507"
    },
    "New City Glass Shop": {
        "Name": "New City Glass Shop",
        "Hours": "24/7",
        "Address": "2519 Telegraph Avenue, Wilmington, CA, 90744",
        "Street": "2519 Telegraph Avenue",
        "City": "Wilmington",
        "State": "CA",
        "Zip Code": "90744",
        "Latitude": "37.8647261",
        "Longitude": "-122.2583379"
    },
    "Evergreen Smoke Shop": {
        "Name": "Evergreen Smoke Shop",
        "Hours": "24/7",
        "Address": "3221 Foothill Blvd, Wilmington, CA, 90744",
        "Street": "3221 Foothill Blvd",
        "City": "Wilmington",
        "State": "CA",
        "Zip Code": "90744",
        "Latitude": "34.2299113",
        "Longitude": "-118.2488141"
    },
    "Hometown Donuts": {
        "Name": "Hometown Donuts",
        "Hours": "24/7",
        "Address": "93 8th St, Wilmington, CA, 90744",
        "Street": "93 8th St",
        "City": "Wilmington",
        "State": "CA",
        "Zip Code": "90744",
        "Latitude": "33.7857948",
        "Longitude": "-118.2643567"
    },
    "Big Liquor": {
        "Name": "Big Liquor",
        "Hours": "24/7",
        "Address": "617 N Redondo Dr # A, Wilmington, CA, 90744",
        "Street": "617 N Redondo Dr # A",
        "City": "Wilmington",
        "State": "CA",
        "Zip Code": "90744",
        "Latitude": "33.2545231",
        "Longitude": "-117.3006303"
    },
    "Balboa Liquor Store": {
        "Name": "Balboa Liquor Store",
        "Hours": "24/7",
        "Address": "1604 Mission Avenue, Wilmington, CA, 90744",
        "Street": "1604 Mission Avenue",
        "City": "Wilmington",
        "State": "CA",
        "Zip Code": "90744",
        "Latitude": "33.2027007",
        "Longitude": "-117.3676582"
    },
    "SN Food Store": {
        "Name": "SN Food Store",
        "Hours": "24/7",
        "Address": "790 N Archibald Ave, Wilmington, CA, 90744",
        "Street": "790 N Archibald Ave",
        "City": "Wilmington",
        "State": "CA",
        "Zip Code": "90744",
        "Latitude": "34.0718448",
        "Longitude": "-117.5928236"
    },
    "Circle G Food & Fuel": {
        "Name": "Circle G Food & Fuel",
        "Hours": "24/7",
        "Address": "1155 N Grove Ave, Wilmington, CA, 90744",
        "Street": "1155 N Grove Ave",
        "City": "Wilmington",
        "State": "CA",
        "Zip Code": "90744",
        "Latitude": "34.0795164",
        "Longitude": "-117.6288385"
    },
    "Smoker's Club Ontario": {
        "Name": "Smoker's Club Ontario",
        "Hours": "24/7",
        "Address": "2910 S Archibald Ave Ste B, Wilmington, CA, 90744",
        "Street": "2910 S Archibald Ave Ste B",
        "City": "Wilmington",
        "State": "CA",
        "Zip Code": "90744",
        "Latitude": "34.0204288",
        "Longitude": "-117.5938805"
    },
    "Doc's Liquor": {
        "Name": "Doc's Liquor",
        "Hours": "24/7",
        "Address": "2195 E Channel Island Boulevard, Wilmington, CA, 90744",
        "Street": "2195 E Channel Island Boulevard",
        "City": "Wilmington",
        "State": "CA",
        "Zip Code": "90744",
        "Latitude": "34.173307",
        "Longitude": "-119.1491704"
    },
    "Sinclair Gas": {
        "Name": "Sinclair Gas",
        "Hours": "24/7",
        "Address": "1050 S Ventura Rd, Wilmington, CA, 90744",
        "Street": "1050 S Ventura Rd",
        "City": "Wilmington",
        "State": "CA",
        "Zip Code": "90744",
        "Latitude": "34.1906108",
        "Longitude": "-119.1944168"
    },
    "One Stop Liquor & Food Store": {
        "Name": "One Stop Liquor & Food Store",
        "Hours": "24/7",
        "Address": "5206 Pacheco Blvd, Wilmington, CA, 90744",
        "Street": "5206 Pacheco Blvd",
        "City": "Wilmington",
        "State": "CA",
        "Zip Code": "90744",
        "Latitude": "33.783189",
        "Longitude": "-118.262992"
    },
    "Arco AMPM": {
        "Name": "Arco AMPM",
        "Hours": "24/7",
        "Address": "41157 10th St W, Wilmington, CA, 90744",
        "Street": "41157 10th St W",
        "City": "Wilmington",
        "State": "CA",
        "Zip Code": "90744",
        "Latitude": "34.6309134",
        "Longitude": "-118.1480368"
    },
    "Rivera Liquor Store": {
        "Name": "Rivera Liquor Store",
        "Hours": "24/7",
        "Address": "9137 Slauson Ave, Wilmington, CA, 90744",
        "Street": "9137 Slauson Ave",
        "City": "Wilmington",
        "State": "CA",
        "Zip Code": "90744",
        "Latitude": "33.970194",
        "Longitude": "-118.101661"
    },
    "B & N Ranch Market": {
        "Name": "B & N Ranch Market",
        "Hours": "24/7",
        "Address": "4560 Durfee Ave, Wilmington, CA, 90744",
        "Street": "4560 Durfee Ave",
        "City": "Wilmington",
        "State": "CA",
        "Zip Code": "90744",
        "Latitude": "34.0065173",
        "Longitude": "-118.0768978"
    },
    "Smart Stop": {
        "Name": "Smart Stop",
        "Hours": "24/7",
        "Address": "1007 San Pablo Ave, Wilmington, CA, 90744",
        "Street": "1007 San Pablo Ave",
        "City": "Wilmington",
        "State": "CA",
        "Zip Code": "90744",
        "Latitude": "38.0040964",
        "Longitude": "-122.3044463"
    },
    "Vintage Liqors": {
        "Name": "Vintage Liqors",
        "Hours": "24/7",
        "Address": "1339 Buchanan Rd, Wilmington, CA, 90744",
        "Street": "1339 Buchanan Rd",
        "City": "Wilmington",
        "State": "CA",
        "Zip Code": "90744",
        "Latitude": "37.9991467",
        "Longitude": "-121.8735943"
    },
    "Cigarette Outlet": {
        "Name": "Cigarette Outlet",
        "Hours": "Mon-Thu: 11:00am - 7:00pm, Fri-Sat: 11:00am - 8:00pm, Sun: 11:00am - 5:00pm",
        "Address": "170 Northampton St, York, PA, 17402",
        "Street": "170 Northampton St",
        "City": "York",
        "State": "PA",
        "Zip Code": "17402",
        "Latitude": "39.9625984",
        "Longitude": "-76.727745"
    },
    "Cole Market": {
        "Name": "Cole Market",
        "Hours": "24/7",
        "Address": "4277 First St., Wilmington, CA, 90744",
        "Street": "4277 First St.",
        "City": "Wilmington",
        "State": "CA",
        "Zip Code": "90744",
        "Latitude": "33.79179",
        "Longitude": "-118.2289345"
    },
    "Smoker's Club": {
        "Name": "Smoker's Club",
        "Hours": "24/7",
        "Address": "802 W Colton Ave Suite H, Wilmington, CA, 90744",
        "Street": "802 W Colton Ave Suite H",
        "City": "Wilmington",
        "State": "CA",
        "Zip Code": "90744",
        "Latitude": "34.0631415",
        "Longitude": "-117.1920086"
    },
    "Smokers Club": {
        "Name": "Smokers Club",
        "Hours": "24/7",
        "Address": "802 W Colton Ave Ste H, Wilmington, CA, 90744",
        "Street": "802 W Colton Ave Ste H",
        "City": "Wilmington",
        "State": "CA",
        "Zip Code": "90744",
        "Latitude": "34.0634751",
        "Longitude": "-117.1918641"
    },
    "Emerald City Liquors": {
        "Name": "Emerald City Liquors",
        "Hours": "24/7",
        "Address": "3025 Jefferson Ave, Wilmington, CA, 90744",
        "Street": "3025 Jefferson Ave",
        "City": "Wilmington",
        "State": "CA",
        "Zip Code": "90744",
        "Latitude": "34.0256127",
        "Longitude": "-118.328969"
    },
    "Mobil Fifth": {
        "Name": "Mobil Fifth",
        "Hours": "24/7",
        "Address": "795 Fifth Ave., Wilmington, CA, 90744",
        "Street": "795 Fifth Ave.",
        "City": "Wilmington",
        "State": "CA",
        "Zip Code": "90744",
        "Latitude": "40.7652072",
        "Longitude": "-73.9719932"
    },
    "Nelson's Liquor": {
        "Name": "Nelson's Liquor",
        "Hours": "24/7",
        "Address": "2329 Macdonald Ave, Wilmington, CA, 90744",
        "Street": "2329 Macdonald Ave",
        "City": "Wilmington",
        "State": "CA",
        "Zip Code": "90744",
        "Latitude": "33.7964536",
        "Longitude": "-118.2723023"
    },
    "Kwik Serv": {
        "Name": "Kwik Serv",
        "Hours": "24/7",
        "Address": "1387 S California Blvd, Wilmington, CA, 90744",
        "Street": "1387 S California Blvd",
        "City": "Wilmington",
        "State": "CA",
        "Zip Code": "90744",
        "Latitude": "37.8928392",
        "Longitude": "-122.0616168"
    },
    "Quick Pick Liquor": {
        "Name": "Quick Pick Liquor",
        "Hours": "24/7",
        "Address": "3775 14th St, Wilmington, CA, 90744",
        "Street": "3775 14th St",
        "City": "Wilmington",
        "State": "CA",
        "Zip Code": "90744",
        "Latitude": "33.7857948",
        "Longitude": "-118.2643567"
    },
    "Original $1 Outlet": {
        "Name": "Original $1 Outlet",
        "Hours": "24/7",
        "Address": "5573 Mission Boulevard, Wilmington, CA, 90744",
        "Street": "5573 Mission Boulevard",
        "City": "Wilmington",
        "State": "CA",
        "Zip Code": "90744",
        "Latitude": "33.9977154",
        "Longitude": "-117.405826"
    },
    "Gifts & Smokes For Less": {
        "Name": "Gifts & Smokes For Less",
        "Hours": "24/7",
        "Address": "6015 Pacific St, Wilmington, CA, 90744",
        "Street": "6015 Pacific St",
        "City": "Wilmington",
        "State": "CA",
        "Zip Code": "90744",
        "Latitude": "33.777955",
        "Longitude": "-118.265259"
    },
    "Bonfare Markets #33": {
        "Name": "Bonfare Markets #33",
        "Hours": "24/7",
        "Address": "809 20th Street, Wilmington, CA, 90744",
        "Street": "809 20th Street",
        "City": "Wilmington",
        "State": "CA",
        "Zip Code": "90744",
        "Latitude": "39.759755",
        "Longitude": "-75.547602"
    },
    "AJ Hundal Mart": {
        "Name": "AJ Hundal Mart",
        "Hours": "24/7",
        "Address": "2434 W Capitol Rd, Wilmington, CA, 90744",
        "Street": "2434 W Capitol Rd",
        "City": "Wilmington",
        "State": "CA",
        "Zip Code": "90744",
        "Latitude": "38.5798868",
        "Longitude": "-121.543579"
    },
    "B Brothers Mini Mart": {
        "Name": "B Brothers Mini Mart",
        "Hours": "24/7",
        "Address": "4847 Amber Ln, Wilmington, CA, 90744",
        "Street": "4847 Amber Ln",
        "City": "Wilmington",
        "State": "CA",
        "Zip Code": "90744",
        "Latitude": "38.6581196",
        "Longitude": "-121.3510893"
    },
    "Capital City Liquors": {
        "Name": "Capital City Liquors",
        "Hours": "24/7",
        "Address": "3315 Northgate Blvd, Wilmington, CA, 90744",
        "Street": "3315 Northgate Blvd",
        "City": "Wilmington",
        "State": "CA",
        "Zip Code": "90744",
        "Latitude": "38.6282809",
        "Longitude": "-121.4772449"
    },
    "Muir Way Market": {
        "Name": "Muir Way Market",
        "Hours": "24/7",
        "Address": "2736 Muir Way, Wilmington, CA, 90744",
        "Street": "2736 Muir Way",
        "City": "Wilmington",
        "State": "CA",
        "Zip Code": "90744",
        "Latitude": "38.559447",
        "Longitude": "-121.5049659"
    },
    "Food Stop": {
        "Name": "Food Stop",
        "Hours": "24/7",
        "Address": "7601 Amherst St, Wilmington, CA, 90744",
        "Street": "7601 Amherst St",
        "City": "Wilmington",
        "State": "CA",
        "Zip Code": "90744",
        "Latitude": "33.7857948",
        "Longitude": "-118.2643567"
    },
    "LaLa Land Smoke Shop": {
        "Name": "LaLa Land Smoke Shop",
        "Hours": "24/7",
        "Address": "1018 N Davis Rd, Wilmington, CA, 90744",
        "Street": "1018 N Davis Rd",
        "City": "Wilmington",
        "State": "CA",
        "Zip Code": "90744",
        "Latitude": "36.6948686",
        "Longitude": "-121.6671432"
    },
    "Paradise Liquor & Mart": {
        "Name": "Paradise Liquor & Mart",
        "Hours": "24/7",
        "Address": "1580 N Mt Vernon Ave, Wilmington, CA, 90744",
        "Street": "1580 N Mt Vernon Ave",
        "City": "Wilmington",
        "State": "CA",
        "Zip Code": "90744",
        "Latitude": "34.1283012",
        "Longitude": "-117.3140036"
    },
    "Shop N Go": {
        "Name": "Shop N Go",
        "Hours": "Mon-Fri: 7:00am - 10:00pm, Sat-Sun: 8:00am - 10:00pm",
        "Address": "1999 Cypress Creek Pkwy, Wolfforth, TX, 79382",
        "Street": "1999 Cypress Creek Pkwy",
        "City": "Wolfforth",
        "State": "TX",
        "Zip Code": "79382",
        "Latitude": "30.0095185",
        "Longitude": "-95.4585634"
    },
    "Blink Smoke & Vape Outlet": {
        "Name": "Blink Smoke & Vape Outlet",
        "Hours": "24/7",
        "Address": "493 W Orange Show Rd, Wilmington, CA, 90744",
        "Street": "493 W Orange Show Rd",
        "City": "Wilmington",
        "State": "CA",
        "Zip Code": "90744",
        "Latitude": "34.0792693",
        "Longitude": "-117.2936837"
    },
    "Party Time Liquor": {
        "Name": "Party Time Liquor",
        "Hours": "24/7",
        "Address": "3435 Euclid Ave, Wilmington, CA, 90744",
        "Street": "3435 Euclid Ave",
        "City": "Wilmington",
        "State": "CA",
        "Zip Code": "90744",
        "Latitude": "34.0306498",
        "Longitude": "-118.2073827"
    },
    "EBK Fuels": {
        "Name": "EBK Fuels",
        "Hours": "24/7",
        "Address": "5345 Kearny Villa Road, Wilmington, CA, 90744",
        "Street": "5345 Kearny Villa Road",
        "City": "Wilmington",
        "State": "CA",
        "Zip Code": "90744",
        "Latitude": "32.8301918",
        "Longitude": "-117.1405152"
    },
    "Fashion Valley": {
        "Name": "Fashion Valley",
        "Hours": "24/7",
        "Address": "7007 Friars Rd, Wilmington, CA, 90744",
        "Street": "7007 Friars Rd",
        "City": "Wilmington",
        "State": "CA",
        "Zip Code": "90744",
        "Latitude": "32.7681182",
        "Longitude": "-117.1667284"
    },
    "Pearson Fuels": {
        "Name": "Pearson Fuels",
        "Hours": "24/7",
        "Address": "4067 El Cajon Blvd, Wilmington, CA, 90744",
        "Street": "4067 El Cajon Blvd",
        "City": "Wilmington",
        "State": "CA",
        "Zip Code": "90744",
        "Latitude": "32.7548646",
        "Longitude": "-117.1074705"
    },
    "Arco Gas": {
        "Name": "Arco Gas",
        "Hours": "24/7",
        "Address": "11244 Laurel Canyon Blvd., Wilmington, CA, 90744",
        "Street": "11244 Laurel Canyon Blvd.",
        "City": "Wilmington",
        "State": "CA",
        "Zip Code": "90744",
        "Latitude": "34.274713",
        "Longitude": "-118.4487105"
    },
    "Jeet Big Times Smoke Shop": {
        "Name": "Jeet Big Times Smoke Shop",
        "Hours": "24/7",
        "Address": "1444 Polk St, Wilmington, CA, 90744",
        "Street": "1444 Polk St",
        "City": "Wilmington",
        "State": "CA",
        "Zip Code": "90744",
        "Latitude": "37.7902835",
        "Longitude": "-122.4203498"
    },
    "Stop & Shop Market": {
        "Name": "Stop & Shop Market",
        "Hours": "24/7",
        "Address": "3000 Mission Street, Wilmington, CA, 90744",
        "Street": "3000 Mission Street",
        "City": "Wilmington",
        "State": "CA",
        "Zip Code": "90744",
        "Latitude": "37.7488937",
        "Longitude": "-122.4183566"
    },
    "Dianna Market": {
        "Name": "Dianna Market",
        "Hours": "24/7",
        "Address": "282 9th St, Wilmington, CA, 90744",
        "Street": "282 9th St",
        "City": "Wilmington",
        "State": "CA",
        "Zip Code": "90744",
        "Latitude": "33.7857948",
        "Longitude": "-118.2643567"
    },
    "Castro Gas and Food Mart": {
        "Name": "Castro Gas and Food Mart",
        "Hours": "24/7",
        "Address": "376 Castro Street, Wilmington, CA, 90744",
        "Street": "376 Castro Street",
        "City": "Wilmington",
        "State": "CA",
        "Zip Code": "90744",
        "Latitude": "37.7609082",
        "Longitude": "-122.4350043"
    },
    "Cazadores Bottle Shop": {
        "Name": "Cazadores Bottle Shop",
        "Hours": "24/7",
        "Address": "3777 Williams Rd, Wilmington, CA, 90744",
        "Street": "3777 Williams Rd",
        "City": "Wilmington",
        "State": "CA",
        "Zip Code": "90744",
        "Latitude": "34.1012905",
        "Longitude": "-77.8836894"
    },
    "Martin's Liquor": {
        "Name": "Martin's Liquor",
        "Hours": "24/7",
        "Address": "14319 E 14th St, Wilmington, CA, 90744",
        "Street": "14319 E 14th St",
        "City": "Wilmington",
        "State": "CA",
        "Zip Code": "90744",
        "Latitude": "37.7111434",
        "Longitude": "-122.1378574"
    },
    "Shoreview Liquors": {
        "Name": "Shoreview Liquors",
        "Hours": "24/7",
        "Address": "420 S Norfolk St, Wilmington, CA, 90744",
        "Street": "420 S Norfolk St",
        "City": "Wilmington",
        "State": "CA",
        "Zip Code": "90744",
        "Latitude": "37.5715953",
        "Longitude": "-122.3108845"
    },
    "J&M Liquors": {
        "Name": "J&M Liquors",
        "Hours": "24/7",
        "Address": "14718 San Pablo Ave, Wilmington, CA, 90744",
        "Street": "14718 San Pablo Ave",
        "City": "Wilmington",
        "State": "CA",
        "Zip Code": "90744",
        "Latitude": "37.9706546",
        "Longitude": "-122.3432533"
    },
    "Smoke and Gifts 4 Less": {
        "Name": "Smoke and Gifts 4 Less",
        "Hours": "24/7",
        "Address": "2431 N Tustin Ave # K, Wilmington, CA, 90744",
        "Street": "2431 N Tustin Ave # K",
        "City": "Wilmington",
        "State": "CA",
        "Zip Code": "90744",
        "Latitude": "33.7700851",
        "Longitude": "-117.8350051"
    },
    "Santa Ana Gasoline": {
        "Name": "Santa Ana Gasoline",
        "Hours": "24/7",
        "Address": "2702 W 1st St, Wilmington, CA, 90744",
        "Street": "2702 W 1st St",
        "City": "Wilmington",
        "State": "CA",
        "Zip Code": "90744",
        "Latitude": "33.7789111",
        "Longitude": "-118.2819722"
    },
    "SB Tobacco": {
        "Name": "SB Tobacco",
        "Hours": "24/7",
        "Address": "614 N Milpas St, Wilmington, CA, 90744",
        "Street": "614 N Milpas St",
        "City": "Wilmington",
        "State": "CA",
        "Zip Code": "90744",
        "Latitude": "34.4277866",
        "Longitude": "-119.6869812"
    },
    "Quik Buy Market": {
        "Name": "Quik Buy Market",
        "Hours": "24/7",
        "Address": "2021 Homestead Rd, Wilmington, CA, 90744",
        "Street": "2021 Homestead Rd",
        "City": "Wilmington",
        "State": "CA",
        "Zip Code": "90744",
        "Latitude": "37.3439368",
        "Longitude": "-121.9602422"
    },
    "76 Gas": {
        "Name": "76 Gas",
        "Hours": "Mon-Fri: 7:00am - 10:00pm, Sat-Sun: 8:00am - 10:00pm",
        "Address": "15050 Old Humble Rd, Wolfforth, TX, 79382",
        "Street": "15050 Old Humble Rd",
        "City": "Wolfforth",
        "State": "TX",
        "Zip Code": "79382",
        "Latitude": "29.9397871",
        "Longitude": "-95.2833012"
    },
    "Santa Rosa Plaza": {
        "Name": "Santa Rosa Plaza",
        "Hours": "24/7",
        "Address": "1071 Santa Rosa Plaza, Wilmington, CA, 90744",
        "Street": "1071 Santa Rosa Plaza",
        "City": "Wilmington",
        "State": "CA",
        "Zip Code": "90744",
        "Latitude": "38.4395967",
        "Longitude": "-122.7169734"
    },
    "Get N Go": {
        "Name": "Get N Go",
        "Hours": "24/7",
        "Address": "3002 Floral Ave, Wilmington, CA, 90744",
        "Street": "3002 Floral Ave",
        "City": "Wilmington",
        "State": "CA",
        "Zip Code": "90744",
        "Latitude": "36.5767419",
        "Longitude": "-119.6317334"
    },
    "Friends Market": {
        "Name": "Friends Market",
        "Hours": "24/7",
        "Address": "200 San Felipe Ave, Wilmington, CA, 90744",
        "Street": "200 San Felipe Ave",
        "City": "Wilmington",
        "State": "CA",
        "Zip Code": "90744",
        "Latitude": "37.6564971",
        "Longitude": "-122.4502318"
    },
    "Liquor Maxx": {
        "Name": "Liquor Maxx",
        "Hours": "24/7",
        "Address": "8626 N Lower Sacramento Rd Suite 8, Wilmington, CA, 90744",
        "Street": "8626 N Lower Sacramento Rd Suite 8",
        "City": "Wilmington",
        "State": "CA",
        "Zip Code": "90744",
        "Latitude": "38.0289002",
        "Longitude": "-121.3215471"
    },
    "Galamart": {
        "Name": "Galamart",
        "Hours": "24/7",
        "Address": "1193 W El Camino Real, Wilmington, CA, 90744",
        "Street": "1193 W El Camino Real",
        "City": "Wilmington",
        "State": "CA",
        "Zip Code": "90744",
        "Latitude": "37.374505",
        "Longitude": "-122.055811"
    },
    "International Liquor Store": {
        "Name": "International Liquor Store",
        "Hours": "24/7",
        "Address": "2515 W Carson St #E, Wilmington, CA, 90744",
        "Street": "2515 W Carson St #E",
        "City": "Wilmington",
        "State": "CA",
        "Zip Code": "90744",
        "Latitude": "33.8315725",
        "Longitude": "-118.3295385"
    },
    "11th Street Liquor": {
        "Name": "11th Street Liquor",
        "Hours": "24/7",
        "Address": "18 E 11th Street, Wilmington, CA, 90744",
        "Street": "18 E 11th Street",
        "City": "Wilmington",
        "State": "CA",
        "Zip Code": "90744",
        "Latitude": "34.0209713",
        "Longitude": "-118.2145582"
    },
    "The Smoke Depot & Vape Lounge": {
        "Name": "The Smoke Depot & Vape Lounge",
        "Hours": "24/7",
        "Address": "26930 The Old Rd, Wilmington, CA, 90744",
        "Street": "26930 The Old Rd",
        "City": "Wilmington",
        "State": "CA",
        "Zip Code": "90744",
        "Latitude": "34.4102764",
        "Longitude": "-118.5784769"
    },
    "M & M Liquors": {
        "Name": "M & M Liquors",
        "Hours": "24/7",
        "Address": "705 Sonoma Blvd, Wilmington, CA, 90744",
        "Street": "705 Sonoma Blvd",
        "City": "Wilmington",
        "State": "CA",
        "Zip Code": "90744",
        "Latitude": "38.0878874",
        "Longitude": "-122.2437915"
    },
    "Tobacco & More": {
        "Name": "Tobacco & More",
        "Hours": "24/7",
        "Address": "120 N Vincent Ave, Wilmington, CA, 90744",
        "Street": "120 N Vincent Ave",
        "City": "Wilmington",
        "State": "CA",
        "Zip Code": "90744",
        "Latitude": "33.7486162",
        "Longitude": "-118.265862"
    },
    "Terners Liquors": {
        "Name": "Terners Liquors",
        "Hours": "24/7",
        "Address": "8850 Sunset Blvd, Wilmington, CA, 90744",
        "Street": "8850 Sunset Blvd",
        "City": "Wilmington",
        "State": "CA",
        "Zip Code": "90744",
        "Latitude": "34.090438",
        "Longitude": "-118.3846834"
    },
    "Uncle Sal's Smoke Shop": {
        "Name": "Uncle Sal's Smoke Shop",
        "Hours": "24/7",
        "Address": "42263 50th St, Wilmington, CA, 90744",
        "Street": "42263 50th St",
        "City": "Wilmington",
        "State": "CA",
        "Zip Code": "90744",
        "Latitude": "34.6507357",
        "Longitude": "-118.2191736"
    },
    "Southbay Gas and Market": {
        "Name": "Southbay Gas and Market",
        "Hours": "24/7",
        "Address": "14511 Brookhurst St, Wilmington, CA, 90744",
        "Street": "14511 Brookhurst St",
        "City": "Wilmington",
        "State": "CA",
        "Zip Code": "90744",
        "Latitude": "33.75191",
        "Longitude": "-117.9553"
    },
    "Alta Dena Express": {
        "Name": "Alta Dena Express",
        "Hours": "24/7",
        "Address": "11302 Washington Blvd, Wilmington, CA, 90744",
        "Street": "11302 Washington Blvd",
        "City": "Wilmington",
        "State": "CA",
        "Zip Code": "90744",
        "Latitude": "34.0038244",
        "Longitude": "-118.414097"
    },
    "Main Market": {
        "Name": "Main Market",
        "Hours": "24/7",
        "Address": "12604 Penn St, Wilmington, CA, 90744",
        "Street": "12604 Penn St",
        "City": "Wilmington",
        "State": "CA",
        "Zip Code": "90744",
        "Latitude": "33.9752922",
        "Longitude": "-118.0418224"
    },
    "Alta Convenience": {
        "Name": "Alta Convenience",
        "Hours": "Mon-Sat: 6:00 AM - 8:00 PM, Sun: 7:00 AM - 8:00 PM",
        "Address": "9999 W 38th Ave, Wheat Ridge, CO, 80033",
        "Street": "9999 W 38th Ave",
        "City": "Wheat Ridge",
        "State": "CO",
        "Zip Code": "80033",
        "Latitude": "39.7697546",
        "Longitude": "-105.108948"
    },
    "Alta Convenience #1340": {
        "Name": "Alta Convenience #1340",
        "Hours": "Mon-Sat: 6:00 AM - 8:00 PM, Sun: 7:00 AM - 8:00 PM",
        "Address": "15201 E Hampden Ave, Wheat Ridge, CO, 80033",
        "Street": "15201 E Hampden Ave",
        "City": "Wheat Ridge",
        "State": "CO",
        "Zip Code": "80033",
        "Latitude": "39.6534816",
        "Longitude": "-104.8685921"
    },
    "Shortstop Williams Village": {
        "Name": "Shortstop Williams Village",
        "Hours": "Mon-Sat: 6:00 AM - 8:00 PM, Sun: 7:00 AM - 8:00 PM",
        "Address": "2990 Baseline Road, Wheat Ridge, CO, 80033",
        "Street": "2990 Baseline Road",
        "City": "Wheat Ridge",
        "State": "CO",
        "Zip Code": "80033",
        "Latitude": "39.99953319999999",
        "Longitude": "-105.253532"
    },
    "Shortstop Gunbarrel": {
        "Name": "Shortstop Gunbarrel",
        "Hours": "Mon-Sat: 6:00 AM - 8:00 PM, Sun: 7:00 AM - 8:00 PM",
        "Address": "6510 Lookout Rd, Wheat Ridge, CO, 80033",
        "Street": "6510 Lookout Rd",
        "City": "Wheat Ridge",
        "State": "CO",
        "Zip Code": "80033",
        "Latitude": "40.0726214",
        "Longitude": "-105.2017467"
    },
    "Qwik Stop": {
        "Name": "Qwik Stop",
        "Hours": "Mon-Sat: 6:00 AM - 8:00 PM, Sun: 7:00 AM - 8:00 PM",
        "Address": "21 Co Rd 27, Wheat Ridge, CO, 80033",
        "Street": "21 Co Rd 27",
        "City": "Wheat Ridge",
        "State": "CO",
        "Zip Code": "80033",
        "Latitude": "39.7775841",
        "Longitude": "-105.1083542"
    },
    "Alta Convenience #6104": {
        "Name": "Alta Convenience #6104",
        "Hours": "Mon-Sat: 6:00 AM - 8:00 PM, Sun: 7:00 AM - 8:00 PM",
        "Address": "800 S Wilcox St, Wheat Ridge, CO, 80033",
        "Street": "800 S Wilcox St",
        "City": "Wheat Ridge",
        "State": "CO",
        "Zip Code": "80033",
        "Latitude": "39.362475",
        "Longitude": "-104.8653691"
    },
    "Corner Market 66": {
        "Name": "Corner Market 66",
        "Hours": "Mon-Sat: 6:00 AM - 8:00 PM, Sun: 7:00 AM - 8:00 PM",
        "Address": "4295 N Academy Blvd, Wheat Ridge, CO, 80033",
        "Street": "4295 N Academy Blvd",
        "City": "Wheat Ridge",
        "State": "CO",
        "Zip Code": "80033",
        "Latitude": "38.8940641",
        "Longitude": "-104.7573581"
    },
    "Kwik Stop Family Mart": {
        "Name": "Kwik Stop Family Mart",
        "Hours": "Mon-Sat: 6:00 AM - 8:00 PM, Sun: 7:00 AM - 8:00 PM",
        "Address": "847 E Platte Ave, Wheat Ridge, CO, 80033",
        "Street": "847 E Platte Ave",
        "City": "Wheat Ridge",
        "State": "CO",
        "Zip Code": "80033",
        "Latitude": "38.8372406",
        "Longitude": "-104.8082767"
    },
    "Alta Convenience #6101": {
        "Name": "Alta Convenience #6101",
        "Hours": "Mon-Sat: 6:00 AM - 8:00 PM, Sun: 7:00 AM - 8:00 PM",
        "Address": "2105 W Colorado Ave, Wheat Ridge, CO, 80033",
        "Street": "2105 W Colorado Ave",
        "City": "Wheat Ridge",
        "State": "CO",
        "Zip Code": "80033",
        "Latitude": "38.8434621",
        "Longitude": "-104.857291"
    },
    "Alta Convenience #6008": {
        "Name": "Alta Convenience #6008",
        "Hours": "Mon-Sat: 6:00 AM - 8:00 PM, Sun: 7:00 AM - 8:00 PM",
        "Address": "5050 Boardwalk Drive, Wheat Ridge, CO, 80033",
        "Street": "5050 Boardwalk Drive",
        "City": "Wheat Ridge",
        "State": "CO",
        "Zip Code": "80033",
        "Latitude": "40.5171229",
        "Longitude": "-105.0635041"
    },
    "Alta Convenience #6009": {
        "Name": "Alta Convenience #6009",
        "Hours": "Mon-Sat: 6:00 AM - 8:00 PM, Sun: 7:00 AM - 8:00 PM",
        "Address": "3945 Palmer Park Road, Wheat Ridge, CO, 80033",
        "Street": "3945 Palmer Park Road",
        "City": "Wheat Ridge",
        "State": "CO",
        "Zip Code": "80033",
        "Latitude": "39.7775841",
        "Longitude": "-105.1083542"
    },
    "Shop N Save": {
        "Name": "Shop N Save",
        "Hours": "Mon-Sat: 6:00 AM - 8:00 PM, Sun: 7:00 AM - 8:00 PM",
        "Address": "7191 Quebec St, Wheat Ridge, CO, 80033",
        "Street": "7191 Quebec St",
        "City": "Wheat Ridge",
        "State": "CO",
        "Zip Code": "80033",
        "Latitude": "39.8268794",
        "Longitude": "-104.9037953"
    },
    "Riverdale Wine & Spirits": {
        "Name": "Riverdale Wine & Spirits",
        "Hours": "Mon-Sat: 6:00 AM - 8:00 PM, Sun: 7:00 AM - 8:00 PM",
        "Address": "15550 E 103rd Pl #106, Wheat Ridge, CO, 80033",
        "Street": "15550 E 103rd Pl #106",
        "City": "Wheat Ridge",
        "State": "CO",
        "Zip Code": "80033",
        "Latitude": "39.8839985",
        "Longitude": "-104.8063846"
    },
    "Wadsworth Century Mart": {
        "Name": "Wadsworth Century Mart",
        "Hours": "Mon-Sat: 6:00 AM - 8:00 PM, Sun: 7:00 AM - 8:00 PM",
        "Address": "2900 S. Wadsworth Blvd, Wheat Ridge, CO, 80033",
        "Street": "2900 S. Wadsworth Blvd",
        "City": "Wheat Ridge",
        "State": "CO",
        "Zip Code": "80033",
        "Latitude": "39.7584567",
        "Longitude": "-105.0814263"
    },
    "Century Mart": {
        "Name": "Century Mart",
        "Hours": "Mon-Sat: 6:00 AM - 8:00 PM, Sun: 7:00 AM - 8:00 PM",
        "Address": "1696 S Broadway, Wheat Ridge, CO, 80033",
        "Street": "1696 S Broadway",
        "City": "Wheat Ridge",
        "State": "CO",
        "Zip Code": "80033",
        "Latitude": "39.6859755",
        "Longitude": "-104.9872152"
    },
    "Silco Fuels": {
        "Name": "Silco Fuels",
        "Hours": "Mon-Sat: 6:00 AM - 8:00 PM, Sun: 7:00 AM - 8:00 PM",
        "Address": "295 S Broadway, Wheat Ridge, CO, 80033",
        "Street": "295 S Broadway",
        "City": "Wheat Ridge",
        "State": "CO",
        "Zip Code": "80033",
        "Latitude": "39.71151800000001",
        "Longitude": "-104.987981"
    },
    "Mile High Food & Gas": {
        "Name": "Mile High Food & Gas",
        "Hours": "Mon-Sat: 6:00 AM - 8:00 PM, Sun: 7:00 AM - 8:00 PM",
        "Address": "6390 E Colfax Ave, Wheat Ridge, CO, 80033",
        "Street": "6390 E Colfax Ave",
        "City": "Wheat Ridge",
        "State": "CO",
        "Zip Code": "80033",
        "Latitude": "39.7398268",
        "Longitude": "-104.9143503"
    },
    "Conoco": {
        "Name": "Conoco",
        "Hours": "Mon-Fri: 7:00am - 10:00pm, Sat-Sun: 8:00am - 10:00pm",
        "Address": "4140 Meadowbrook Dr, Wolfforth, TX, 79382",
        "Street": "4140 Meadowbrook Dr",
        "City": "Wolfforth",
        "State": "TX",
        "Zip Code": "79382",
        "Latitude": "32.7453695",
        "Longitude": "-97.2623146"
    },
    "Federal Shell": {
        "Name": "Federal Shell",
        "Hours": "Mon-Sat: 6:00 AM - 8:00 PM, Sun: 7:00 AM - 8:00 PM",
        "Address": "2680 S Federal Blvd, Wheat Ridge, CO, 80033",
        "Street": "2680 S Federal Blvd",
        "City": "Wheat Ridge",
        "State": "CO",
        "Zip Code": "80033",
        "Latitude": "39.6683178",
        "Longitude": "-105.0247618"
    },
    "Denver Smokes": {
        "Name": "Denver Smokes",
        "Hours": "Mon-Sat: 6:00 AM - 8:00 PM, Sun: 7:00 AM - 8:00 PM",
        "Address": "4085 E Mississippi Ave Suite E, Wheat Ridge, CO, 80033",
        "Street": "4085 E Mississippi Ave Suite E",
        "City": "Wheat Ridge",
        "State": "CO",
        "Zip Code": "80033",
        "Latitude": "39.69691520000001",
        "Longitude": "-104.9399348"
    },
    "Munchies Super Market": {
        "Name": "Munchies Super Market",
        "Hours": "Mon-Sat: 6:00 AM - 8:00 PM, Sun: 7:00 AM - 8:00 PM",
        "Address": "1501 W Elizabeth St, Wheat Ridge, CO, 80033",
        "Street": "1501 W Elizabeth St",
        "City": "Wheat Ridge",
        "State": "CO",
        "Zip Code": "80033",
        "Latitude": "40.5739299",
        "Longitude": "-105.1033183"
    },
    "Riverside Valero": {
        "Name": "Riverside Valero",
        "Hours": "Mon-Sat: 6:00 AM - 8:00 PM, Sun: 7:00 AM - 8:00 PM",
        "Address": "803 Riverside Ave, Wheat Ridge, CO, 80033",
        "Street": "803 Riverside Ave",
        "City": "Wheat Ridge",
        "State": "CO",
        "Zip Code": "80033",
        "Latitude": "40.5810202",
        "Longitude": "-105.0631163"
    },
    "Convenience Plus": {
        "Name": "Convenience Plus",
        "Hours": "Mon-Sat: 6:00 AM - 8:00 PM, Sun: 7:00 AM - 8:00 PM",
        "Address": "13655 W Jewell Ave # 101, Wheat Ridge, CO, 80033",
        "Street": "13655 W Jewell Ave # 101",
        "City": "Wheat Ridge",
        "State": "CO",
        "Zip Code": "80033",
        "Latitude": "39.6822281",
        "Longitude": "-105.155227"
    },
    "Alta Convenience #611": {
        "Name": "Alta Convenience #611",
        "Hours": "Mon-Sat: 6:00 AM - 8:00 PM, Sun: 7:00 AM - 8:00 PM",
        "Address": "7603 W 13th Ave, Wheat Ridge, CO, 80033",
        "Street": "7603 W 13th Ave",
        "City": "Wheat Ridge",
        "State": "CO",
        "Zip Code": "80033",
        "Latitude": "39.7369526",
        "Longitude": "-105.0817717"
    },
    "Corner Mart 60": {
        "Name": "Corner Mart 60",
        "Hours": "Mon-Sat: 6:00 AM - 8:00 PM, Sun: 7:00 AM - 8:00 PM",
        "Address": "1135 E South Boulder Rd, Wheat Ridge, CO, 80033",
        "Street": "1135 E South Boulder Rd",
        "City": "Wheat Ridge",
        "State": "CO",
        "Zip Code": "80033",
        "Latitude": "39.9872939",
        "Longitude": "-105.1292076"
    },
    "Centennial Wine & Spirits": {
        "Name": "Centennial Wine & Spirits",
        "Hours": "Mon-Sat: 6:00 AM - 8:00 PM, Sun: 7:00 AM - 8:00 PM",
        "Address": "324 McCaslin Blvd., Wheat Ridge, CO, 80033",
        "Street": "324 McCaslin Blvd.",
        "City": "Wheat Ridge",
        "State": "CO",
        "Zip Code": "80033",
        "Latitude": "39.9657394",
        "Longitude": "-105.1618419"
    },
    "Corner Store": {
        "Name": "Corner Store",
        "Hours": "Mon-Sat: 6:00 AM - 8:00 PM, Sun: 7:00 AM - 8:00 PM",
        "Address": "3675 Garfield Ave, Wheat Ridge, CO, 80033",
        "Street": "3675 Garfield Ave",
        "City": "Wheat Ridge",
        "State": "CO",
        "Zip Code": "80033",
        "Latitude": "40.4300503",
        "Longitude": "-105.0779582"
    },
    "Alta Convenience # 3113": {
        "Name": "Alta Convenience # 3113",
        "Hours": "Mon-Sat: 6:00 AM - 8:00 PM, Sun: 7:00 AM - 8:00 PM",
        "Address": "723 Pueblo Blvd, Wheat Ridge, CO, 80033",
        "Street": "723 Pueblo Blvd",
        "City": "Wheat Ridge",
        "State": "CO",
        "Zip Code": "80033",
        "Latitude": "38.2536774",
        "Longitude": "-104.6621983"
    },
    "Mary Jane Glass Haberdasher": {
        "Name": "Mary Jane Glass Haberdasher",
        "Hours": "Mon-Sat: 6:00 AM - 8:00 PM, Sun: 7:00 AM - 8:00 PM",
        "Address": "1626 W US Highway 50, Wheat Ridge, CO, 80033",
        "Street": "1626 W US Highway 50",
        "City": "Wheat Ridge",
        "State": "CO",
        "Zip Code": "80033",
        "Latitude": "38.3088509",
        "Longitude": "-104.6288976"
    },
    "Denver Premium Outlets": {
        "Name": "Denver Premium Outlets",
        "Hours": "Mon-Sat: 6:00 AM - 8:00 PM, Sun: 7:00 AM - 8:00 PM",
        "Address": "13801 Grant St, Wheat Ridge, CO, 80033",
        "Street": "13801 Grant St",
        "City": "Wheat Ridge",
        "State": "CO",
        "Zip Code": "80033",
        "Latitude": "39.7775841",
        "Longitude": "-105.1083542"
    },
    "Your Neighborhood Laundromat": {
        "Name": "Your Neighborhood Laundromat",
        "Hours": "Monday-Sunday: 5:00 AM-11:00 PM",
        "Address": "291 Barbour St, West Hartford, CT, 06110",
        "Street": "291 Barbour St",
        "City": "West Hartford",
        "State": "CT",
        "Zip Code": "06110",
        "Latitude": "41.7934574",
        "Longitude": "-72.67817149999999"
    },
    "G&C Grocery": {
        "Name": "G&C Grocery",
        "Hours": "Monday-Sunday: 5:00 AM-11:00 PM",
        "Address": "760 Park St, West Hartford, CT, 06110",
        "Street": "760 Park St",
        "City": "West Hartford",
        "State": "CT",
        "Zip Code": "06110",
        "Latitude": "41.758235",
        "Longitude": "-72.6897528"
    },
    "Global Food Mart": {
        "Name": "Global Food Mart",
        "Hours": "Monday-Sunday: 5:00 AM-11:00 PM",
        "Address": "93 Main Street, West Hartford, CT, 06110",
        "Street": "93 Main Street",
        "City": "West Hartford",
        "State": "CT",
        "Zip Code": "06110",
        "Latitude": "41.768356",
        "Longitude": "-72.743173"
    },
    "North Main Convenience": {
        "Name": "North Main Convenience",
        "Hours": "Monday-Sunday: 5:00 AM-11:00 PM",
        "Address": "48 N Main St, West Hartford, CT, 06110",
        "Street": "48 N Main St",
        "City": "West Hartford",
        "State": "CT",
        "Zip Code": "06110",
        "Latitude": "41.7651964",
        "Longitude": "-72.7422067"
    },
    "95 Express": {
        "Name": "95 Express",
        "Hours": "Monday-Sunday: 5:00 AM-11:00 PM",
        "Address": "1125 E Main Street, West Hartford, CT, 06110",
        "Street": "1125 E Main Street",
        "City": "West Hartford",
        "State": "CT",
        "Zip Code": "06110",
        "Latitude": "41.7370975",
        "Longitude": "-72.72744949999999"
    },
    "West Main Grocery": {
        "Name": "West Main Grocery",
        "Hours": "Monday-Sunday: 5:00 AM-11:00 PM",
        "Address": "495 W Main St, West Hartford, CT, 06110",
        "Street": "495 W Main St",
        "City": "West Hartford",
        "State": "CT",
        "Zip Code": "06110",
        "Latitude": "41.7286838",
        "Longitude": "-72.7435424"
    },
    "Landmark Convenience": {
        "Name": "Landmark Convenience",
        "Hours": "Monday-Sunday: 5:00 AM-11:00 PM",
        "Address": "118 Broad Street, West Hartford, CT, 06110",
        "Street": "118 Broad Street",
        "City": "West Hartford",
        "State": "CT",
        "Zip Code": "06110",
        "Latitude": "41.7680635",
        "Longitude": "-72.68608789999999"
    },
    "Crystal Mall": {
        "Name": "Crystal Mall",
        "Hours": "Monday-Sunday: 5:00 AM-11:00 PM",
        "Address": "850 Hartford Turnpike, West Hartford, CT, 06110",
        "Street": "850 Hartford Turnpike",
        "City": "West Hartford",
        "State": "CT",
        "Zip Code": "06110",
        "Latitude": "41.3740379",
        "Longitude": "-72.1447641"
    },
    "Dover Mall": {
        "Name": "Dover Mall",
        "Hours": "Mon-Sun: 9:00am - 10:00pm",
        "Address": "1365 N Dupont Hwy, Wilmington, DE, 19802",
        "Street": "1365 N Dupont Hwy",
        "City": "Wilmington",
        "State": "DE",
        "Zip Code": "19802",
        "Latitude": "39.6892808",
        "Longitude": "-75.582589"
    },
    "One Stop Convenient Store": {
        "Name": "One Stop Convenient Store",
        "Hours": "Mon-Sun: 9:00am - 10:00pm",
        "Address": "1102 White Oak Road, Wilmington, DE, 19802",
        "Street": "1102 White Oak Road",
        "City": "Wilmington",
        "State": "DE",
        "Zip Code": "19802",
        "Latitude": "39.7626533",
        "Longitude": "-75.5086377"
    },
    "Super Gas": {
        "Name": "Super Gas",
        "Hours": "Mon-Sun: 9:00am - 10:00pm",
        "Address": "3006 New Castle Ave, Wilmington, DE, 19802",
        "Street": "3006 New Castle Ave",
        "City": "Wilmington",
        "State": "DE",
        "Zip Code": "19802",
        "Latitude": "39.6998265",
        "Longitude": "-75.5519381"
    },
    "Speedy Gas": {
        "Name": "Speedy Gas",
        "Hours": "Mon-Sun: 9:00am - 10:00pm",
        "Address": "1607 Philadelphia Pike, Wilmington, DE, 19802",
        "Street": "1607 Philadelphia Pike",
        "City": "Wilmington",
        "State": "DE",
        "Zip Code": "19802",
        "Latitude": "39.7863121",
        "Longitude": "-75.4771422"
    },
    "USA Gas": {
        "Name": "USA Gas",
        "Hours": "Mon-Sun: 9:00am - 10:00pm",
        "Address": "615 Kirkwood Highway, Wilmington, DE, 19802",
        "Street": "615 Kirkwood Highway",
        "City": "Wilmington",
        "State": "DE",
        "Zip Code": "19802",
        "Latitude": "39.7389579",
        "Longitude": "-75.5928915"
    },
    "Family Deli and Grocery": {
        "Name": "Family Deli and Grocery",
        "Hours": "Mon-Sun: 9:00am - 10:00pm",
        "Address": "700 Washington St, Wilmington, DE, 19802",
        "Street": "700 Washington St",
        "City": "Wilmington",
        "State": "DE",
        "Zip Code": "19802",
        "Latitude": "39.7442942",
        "Longitude": "-75.55353"
    },
    "Fitzharris Liquors": {
        "Name": "Fitzharris Liquors",
        "Hours": "Mon-Sun: 9:00am - 10:00pm",
        "Address": "2931 Washington St, Wilmington, DE, 19802",
        "Street": "2931 Washington St",
        "City": "Wilmington",
        "State": "DE",
        "Zip Code": "19802",
        "Latitude": "39.7592202",
        "Longitude": "-75.5342424"
    },
    "Bald Guy Smoke Shop": {
        "Name": "Bald Guy Smoke Shop",
        "Hours": "24/7",
        "Address": "696 E Altamonte Dr #1058, Zephyrhills, FL, 33542",
        "Street": "696 E Altamonte Dr #1058",
        "City": "Zephyrhills",
        "State": "FL",
        "Zip Code": "33542",
        "Latitude": "28.6632763",
        "Longitude": "-81.3665876"
    },
    "A1 Discount": {
        "Name": "A1 Discount",
        "Hours": "24/7",
        "Address": "1042 Berkley Rd, Zephyrhills, FL, 33542",
        "Street": "1042 Berkley Rd",
        "City": "Zephyrhills",
        "State": "FL",
        "Zip Code": "33542",
        "Latitude": "28.072284",
        "Longitude": "-81.817143"
    },
    "Kwik Stop": {
        "Name": "Kwik Stop",
        "Hours": "Mon-Fri: 7:00am - 10:00pm, Sat-Sun: 8:00am - 10:00pm",
        "Address": "506 5th St, Wolfforth, TX, 79382",
        "Street": "506 5th St",
        "City": "Wolfforth",
        "State": "TX",
        "Zip Code": "79382",
        "Latitude": "33.505474",
        "Longitude": "-102.0119268"
    },
    "Mike's Mini Mart": {
        "Name": "Mike's Mini Mart",
        "Hours": "24/7",
        "Address": "5640 15th St, Zephyrhills, FL, 33542",
        "Street": "5640 15th St",
        "City": "Zephyrhills",
        "State": "FL",
        "Zip Code": "33542",
        "Latitude": "28.2435608",
        "Longitude": "-82.17623499999999"
    },
    "Hancock Smoke Shop": {
        "Name": "Hancock Smoke Shop",
        "Hours": "24/7",
        "Address": "159 Hancock Bridge Pkwy, Zephyrhills, FL, 33542",
        "Street": "159 Hancock Bridge Pkwy",
        "City": "Zephyrhills",
        "State": "FL",
        "Zip Code": "33542",
        "Latitude": "26.6522227",
        "Longitude": "-81.9707681"
    },
    "Clermont Smoke Shop": {
        "Name": "Clermont Smoke Shop",
        "Hours": "24/7",
        "Address": "4420 S Hwy 27 Suite 7, Zephyrhills, FL, 33542",
        "Street": "4420 S Hwy 27 Suite 7",
        "City": "Zephyrhills",
        "State": "FL",
        "Zip Code": "33542",
        "Latitude": "28.498315",
        "Longitude": "-81.719056"
    },
    "Top King Food Mart": {
        "Name": "Top King Food Mart",
        "Hours": "24/7",
        "Address": "11744 Fort King Rd, Zephyrhills, FL, 33542",
        "Street": "11744 Fort King Rd",
        "City": "Zephyrhills",
        "State": "FL",
        "Zip Code": "33542",
        "Latitude": "28.3287874",
        "Longitude": "-82.2037546"
    },
    "Volusia Mall": {
        "Name": "Volusia Mall",
        "Hours": "24/7",
        "Address": "1700 W International Speedway Blvd, Zephyrhills, FL, 33542",
        "Street": "1700 W International Speedway Blvd",
        "City": "Zephyrhills",
        "State": "FL",
        "Zip Code": "33542",
        "Latitude": "29.19696489999999",
        "Longitude": "-81.0636798"
    },